{
  "type": "FeatureCollection",
  "features": [
    {
      "type": "Feature",
      "properties": {
        "id": "a63a2dc8-6c79-4fd8-92f7-0105ca1a9654",
        "name": "&hlyab (&bread)",
        "vegan_score": 0,
        "price": null,
        "cuisine_types": [],
        "rating": null,
        "address": "Old City Center, ul. \"Ekzarh Yosif\" 69, 1000 Sofia, Bulgaria"
      },
      "geometry": {
        "type": "Point",
        "coordinates": [
          23.3282208,
          42.7006555
        ]
      }
    },
    {
      "type": "Feature",
      "properties": {
        "id": "af2445c9-f9c6-4c41-8402-82ffc48e3c55",
        "name": "33 Waffles and Pancakes (Sofia) - 33 Гофрети и палачинки Красно село",
        "vegan_score": 1.2,
        "price": null,
        "cuisine_types": [],
        "rating": null,
        "address": "ж.к. Белите брези, bul. \"Gotse Delchev\" 3, 1612 Sofia, Bulgaria"
      },
      "geometry": {
        "type": "Point",
        "coordinates": [
          23.286029,
          42.6781371
        ]
      }
    },
    {
      "type": "Feature",
      "properties": {
        "id": "b6398b5f-31fa-429a-ad64-facd2fc33647",
        "name": "369 Specialty Coffee + Bakery",
        "vegan_score": 3.2,
        "price": null,
        "cuisine_types": [],
        "rating": null,
        "address": "Old City Center, bul. \"Patriarh Evtimiy\" 11, 1142 Sofia, Bulgaria"
      },
      "geometry": {
        "type": "Point",
        "coordinates": [
          23.3266687,
          42.6880912
        ]
      }
    },
    {
      "type": "Feature",
      "properties": {
        "id": "4179bab5-26b5-48e7-8ec0-b9a0c1d44c3f",
        "name": "5 Vintage",
        "vegan_score": 1.5,
        "price": null,
        "cuisine_types": [],
        "rating": null,
        "address": "Old City Center, ul. \"William Gladstone\" 49, 1000 Sofia, Bulgaria"
      },
      "geometry": {
        "type": "Point",
        "coordinates": [
          23.3215039,
          42.6914464
        ]
      }
    },
    {
      "type": "Feature",
      "properties": {
        "id": "112854b2-028d-4b0b-9890-6d7e2c67376a",
        "name": "7suns",
        "vegan_score": 1.3,
        "price": null,
        "cuisine_types": [],
        "rating": null,
        "address": "g.k. Banishora, ul. \"Strandzha\" 109, 1233 Sofia, Bulgaria"
      },
      "geometry": {
        "type": "Point",
        "coordinates": [
          23.3150505,
          42.708135
        ]
      }
    },
    {
      "type": "Feature",
      "properties": {
        "id": "ae3fdcd8-0c5c-486a-9e09-13bc8de66347",
        "name": "ATM Center Hotel",
        "vegan_score": 2.2,
        "price": null,
        "cuisine_types": [],
        "rating": null,
        "address": "Tsarigradsko Shosse 131, Sofia 1784, 7-Mi Kilometar, 1784 Sofia, Bulgaria"
      },
      "geometry": {
        "type": "Point",
        "coordinates": [
          23.3880789,
          42.6563316
        ]
      }
    },
    {
      "type": "Feature",
      "properties": {
        "id": "030264c1-be57-4274-9c3d-9fbd574a0a75",
        "name": "Adel 99-A.Andreeva",
        "vegan_score": 1.2,
        "price": null,
        "cuisine_types": [],
        "rating": null,
        "address": "Sofia, V.Levski Blvd 70, Old City Center, 1142 Sofia, Bulgaria"
      },
      "geometry": {
        "type": "Point",
        "coordinates": [
          23.32945,
          42.68831
        ]
      }
    },
    {
      "type": "Feature",
      "properties": {
        "id": "a663a11a-6cd3-4cce-94ba-80ff318ae1c8",
        "name": "Agarta",
        "vegan_score": 2.5,
        "price": null,
        "cuisine_types": [],
        "rating": null,
        "address": "Sofia Center, ul. \"Han Asparuh\" 36, 1000 Sofia, Bulgaria"
      },
      "geometry": {
        "type": "Point",
        "coordinates": [
          23.3215615,
          42.6893883
        ]
      }
    },
    {
      "type": "Feature",
      "properties": {
        "id": "57f03cb0-b966-4aaf-a615-370abf089ac4",
        "name": "Alabin Central",
        "vegan_score": 0,
        "price": null,
        "cuisine_types": [],
        "rating": null,
        "address": "Old City Center, ул. „Алабин И. Вл.“ 22, 1000 Sofia, Bulgaria"
      },
      "geometry": {
        "type": "Point",
        "coordinates": [
          23.3172443,
          42.6947367
        ]
      }
    },
    {
      "type": "Feature",
      "properties": {
        "id": "b62f0d61-ac58-4f73-97e0-eb8e21704a4c",
        "name": "Altruist - Urban Coffee Shop & Bakery",
        "vegan_score": 2.3,
        "price": null,
        "cuisine_types": [],
        "rating": null,
        "address": "Old City Center, ul. \"Ekzarh Yosif\" 49, 1000 Sofia, Bulgaria"
      },
      "geometry": {
        "type": "Point",
        "coordinates": [
          23.3251322,
          42.7003666
        ]
      }
    },
    {
      "type": "Feature",
      "properties": {
        "id": "3987cf22-9a2a-4bd4-99c8-8910595bf18b",
        "name": "Annapurna Nepali & Indian Restaurant, Sofia",
        "vegan_score": 0,
        "price": null,
        "cuisine_types": [],
        "rating": null,
        "address": "минава се през безистена в дворчето, Old City Center, ulitsa „Georgi S. Rakovski“ 181 б, 1142 Sofia, Bulgaria"
      },
      "geometry": {
        "type": "Point",
        "coordinates": [
          23.3233756,
          42.6872833
        ]
      }
    },
    {
      "type": "Feature",
      "properties": {
        "id": "3b5860ae-6f48-4fa8-9edb-8deb9ed4c65c",
        "name": "Art Club Museum",
        "vegan_score": 4.2,
        "price": null,
        "cuisine_types": [],
        "rating": null,
        "address": "Old City Center, ul. \"Saborna\" 2, 1000 Sofia, Bulgaria"
      },
      "geometry": {
        "type": "Point",
        "coordinates": [
          23.324277,
          42.6961929
        ]
      }
    },
    {
      "type": "Feature",
      "properties": {
        "id": "db867460-e428-49bc-b586-ed027c6db45b",
        "name": "Art Plaza Hotel",
        "vegan_score": 1.5,
        "price": null,
        "cuisine_types": [],
        "rating": null,
        "address": "Old City Center, ul. \"Hristo Belchev\" 46, 1000 Sofia, Bulgaria"
      },
      "geometry": {
        "type": "Point",
        "coordinates": [
          23.3203778,
          42.6894978
        ]
      }
    },
    {
      "type": "Feature",
      "properties": {
        "id": "cfbdd1b3-04cf-46df-9489-7e3a2ee27afb",
        "name": "Art'Otel",
        "vegan_score": 0,
        "price": null,
        "cuisine_types": [],
        "rating": null,
        "address": "44 William Gladstone Street, Old City Center, 1000 Sofia, Bulgaria"
      },
      "geometry": {
        "type": "Point",
        "coordinates": [
          23.3213167,
          42.6913556
        ]
      }
    },
    {
      "type": "Feature",
      "properties": {
        "id": "02d38baa-1284-44b7-b253-59fca857c7d3",
        "name": "Arte Sofia Hotel",
        "vegan_score": 0,
        "price": null,
        "cuisine_types": [],
        "rating": null,
        "address": "Old City Center, Knyaz Alexander Dondukov Blvd 5, 1000 Sofia, Bulgaria"
      },
      "geometry": {
        "type": "Point",
        "coordinates": [
          23.3249993,
          42.6979249
        ]
      }
    },
    {
      "type": "Feature",
      "properties": {
        "id": "01ea0036-dafd-4201-bcb7-372dd1ba6107",
        "name": "Artisan Factory Bakery Lozenets - Gluten Free Bread and Healthy Food",
        "vegan_score": 4.5,
        "price": null,
        "cuisine_types": [],
        "rating": null,
        "address": "g.k. Lozenets, Blvd. \"Cherni vrah\" 17, 1421 Sofia, Bulgaria"
      },
      "geometry": {
        "type": "Point",
        "coordinates": [
          23.3219694,
          42.6800293
        ]
      }
    },
    {
      "type": "Feature",
      "properties": {
        "id": "33e42e88-52f7-4c6d-bcc0-654b267bffbb",
        "name": "At The Eagles",
        "vegan_score": 1.7,
        "price": null,
        "cuisine_types": [],
        "rating": null,
        "address": "Old City Center, ul. \"Dyakon Ignatiy\" 11, 1000 Sofia, Bulgaria"
      },
      "geometry": {
        "type": "Point",
        "coordinates": [
          23.3253884,
          42.6937637
        ]
      }
    },
    {
      "type": "Feature",
      "properties": {
        "id": "1c65da3b-ad42-4cfc-8598-6fb1878f025a",
        "name": "Atlantic",
        "vegan_score": 2.2,
        "price": null,
        "cuisine_types": [],
        "rating": null,
        "address": "19th Street, в.з. Симеоново - северVitosha, 1434 Sofia, Bulgaria"
      },
      "geometry": {
        "type": "Point",
        "coordinates": [
          23.3308125,
          42.6224526
        ]
      }
    },
    {
      "type": "Feature",
      "properties": {
        "id": "39552e5b-7c0d-4c01-8640-2578aec830da",
        "name": "Azalia",
        "vegan_score": 1.3,
        "price": null,
        "cuisine_types": [],
        "rating": null,
        "address": "ж.к. Илинден, ul. \"Haydut Sider\" 8, 1309 Sofia, Bulgaria"
      },
      "geometry": {
        "type": "Point",
        "coordinates": [
          23.2877444,
          42.7118492
        ]
      }
    },
    {
      "type": "Feature",
      "properties": {
        "id": "a30f6063-ffb0-4a67-a808-2af8e0230c1a",
        "name": "BKP Bakery",
        "vegan_score": 1.2,
        "price": null,
        "cuisine_types": [],
        "rating": null,
        "address": "ж.к. Разсадника - Коньовица, bul. \"Vardar\" 26, 1330 Sofia, Bulgaria"
      },
      "geometry": {
        "type": "Point",
        "coordinates": [
          23.2874426,
          42.6960711
        ]
      }
    },
    {
      "type": "Feature",
      "properties": {
        "id": "958132de-4ef8-4949-9505-78c5f3555326",
        "name": "Bar White",
        "vegan_score": 1.1,
        "price": null,
        "cuisine_types": [],
        "rating": null,
        "address": "Sveta Troitsa, Boulevard \"Slivnitsa\" 228, 1309 Sofia, Bulgaria"
      },
      "geometry": {
        "type": "Point",
        "coordinates": [
          23.2989772,
          42.7078498
        ]
      }
    },
    {
      "type": "Feature",
      "properties": {
        "id": "1b1a4585-2510-4578-9bb9-dfcf0c946f76",
        "name": "Bar&Diner \"Smile\"",
        "vegan_score": 2.8,
        "price": null,
        "cuisine_types": [],
        "rating": null,
        "address": "ul. \"Knyaz Boris I\" 2А, 1320 Bankya, Bulgaria"
      },
      "geometry": {
        "type": "Point",
        "coordinates": [
          23.1448292,
          42.7075389
        ]
      }
    },
    {
      "type": "Feature",
      "properties": {
        "id": "b063e9f2-cf5d-4c9c-aa56-b0cf06867862",
        "name": "Barista Coffee and More",
        "vegan_score": 1.3,
        "price": null,
        "cuisine_types": [],
        "rating": null,
        "address": "str. 26-30, Old City Center, ul. \"Bacho Kiro\", 1000 Sofia, Bulgaria"
      },
      "geometry": {
        "type": "Point",
        "coordinates": [
          23.3266398,
          42.7005096
        ]
      }
    },
    {
      "type": "Feature",
      "properties": {
        "id": "c600ef56-ef32-4456-9baf-b4b11d1af84a",
        "name": "Baskerville",
        "vegan_score": 1.1,
        "price": null,
        "cuisine_types": [],
        "rating": null,
        "address": "Old City Center, ul. \"Ivan Denkoglu\" 16, 1000 Sofia, Bulgaria"
      },
      "geometry": {
        "type": "Point",
        "coordinates": [
          23.3186394,
          42.6941151
        ]
      }
    },
    {
      "type": "Feature",
      "properties": {
        "id": "6c4a9acd-2f5c-438d-9882-2338c6e224de",
        "name": "Bedroom Premium",
        "vegan_score": 0,
        "price": null,
        "cuisine_types": [],
        "rating": null,
        "address": "Sofia Center, ul. Lege 2, 1000 Sofia, Bulgaria"
      },
      "geometry": {
        "type": "Point",
        "coordinates": [
          23.3237362,
          42.6950732
        ]
      }
    },
    {
      "type": "Feature",
      "properties": {
        "id": "16fc0216-3c1a-4ceb-8552-d6714c3535af",
        "name": "Been Purple Bar",
        "vegan_score": 0,
        "price": null,
        "cuisine_types": [],
        "rating": null,
        "address": "Doctor's Garden, San Stefano St 24, 1504 Sofia, Bulgaria"
      },
      "geometry": {
        "type": "Point",
        "coordinates": [
          23.337233,
          42.6912329
        ]
      }
    },
    {
      "type": "Feature",
      "properties": {
        "id": "420125c1-9a58-4a29-8184-3cdb0ce35d1e",
        "name": "Best Western Hotel Lozenets",
        "vegan_score": 1,
        "price": null,
        "cuisine_types": [],
        "rating": null,
        "address": "g.k. Lozenets, bul. \"Sveti Naum\" 23, 1421 Sofia, Bulgaria"
      },
      "geometry": {
        "type": "Point",
        "coordinates": [
          23.3261784,
          42.6783237
        ]
      }
    },
    {
      "type": "Feature",
      "properties": {
        "id": "1eb887b6-d626-4ccd-974a-cb877142991a",
        "name": "Better Specialty Coffee",
        "vegan_score": 5.1,
        "price": null,
        "cuisine_types": [],
        "rating": null,
        "address": "Old City Center, ul. \"Neofit Rilski\" 59, 1000 Sofia, Bulgaria"
      },
      "geometry": {
        "type": "Point",
        "coordinates": [
          23.3244851,
          42.689911
        ]
      }
    },
    {
      "type": "Feature",
      "properties": {
        "id": "e6ccba02-9b86-4cb9-af64-4c85fa7c68fb",
        "name": "Biad Premium Club",
        "vegan_score": 1.5,
        "price": null,
        "cuisine_types": [],
        "rating": null,
        "address": "Old City Center, ul. \"General Gurko\" 16, 1000 Sofia, Bulgaria"
      },
      "geometry": {
        "type": "Point",
        "coordinates": [
          23.3263109,
          42.6927399
        ]
      }
    },
    {
      "type": "Feature",
      "properties": {
        "id": "0a5bf89c-6482-40f8-8b16-731b027c6c5e",
        "name": "Biosof bakery",
        "vegan_score": 3.9,
        "price": null,
        "cuisine_types": [],
        "rating": null,
        "address": "ж.к. Стрелбище, ul. \"Tvardishki Prohod\" 23, 1404 Sofia, Bulgaria"
      },
      "geometry": {
        "type": "Point",
        "coordinates": [
          23.2954931,
          42.6719442
        ]
      }
    },
    {
      "type": "Feature",
      "properties": {
        "id": "1a4d3a10-c462-4a4a-aae2-5125bbcfe178",
        "name": "Bistro \"Chestnuts\" Bankya",
        "vegan_score": 2.5,
        "price": null,
        "cuisine_types": [],
        "rating": null,
        "address": "На входа на парка, 1320 Bankya, Bulgaria"
      },
      "geometry": {
        "type": "Point",
        "coordinates": [
          23.1465465,
          42.7067022
        ]
      }
    },
    {
      "type": "Feature",
      "properties": {
        "id": "e3eb0fcd-1a4f-48c5-b4fa-5ab66ae3d20b",
        "name": "Bklyn Coffee Bar",
        "vegan_score": 1.5,
        "price": null,
        "cuisine_types": [],
        "rating": null,
        "address": "Poduyane, ul. \"Neofit Bozveli\" 7, Ап 37, 1505 Sofia, Bulgaria"
      },
      "geometry": {
        "type": "Point",
        "coordinates": [
          23.3583732,
          42.6996015
        ]
      }
    },
    {
      "type": "Feature",
      "properties": {
        "id": "b75fc007-606d-4bd3-b8ef-7de66d5255f7",
        "name": "Black Label Coffee House and Bakery",
        "vegan_score": 2.5,
        "price": null,
        "cuisine_types": [],
        "rating": null,
        "address": "Old City Center, ul. \"Han Asparuh\" 13, 1000 Sofia, Bulgaria"
      },
      "geometry": {
        "type": "Point",
        "coordinates": [
          23.3154322,
          42.6902336
        ]
      }
    },
    {
      "type": "Feature",
      "properties": {
        "id": "83ca0d86-b5bb-4486-9f24-91c8c05507d3",
        "name": "Bona Dea Group",
        "vegan_score": 1.2,
        "price": null,
        "cuisine_types": [],
        "rating": null,
        "address": "Old City Center, Knyaz Alexander Dondukov Blvd 57, вх. А, 1000 Sofia, Bulgaria"
      },
      "geometry": {
        "type": "Point",
        "coordinates": [
          23.3341176,
          42.6988356
        ]
      }
    },
    {
      "type": "Feature",
      "properties": {
        "id": "d44efc40-e303-43c9-9107-0209d6048b7d",
        "name": "Boom Burgers & Booze",
        "vegan_score": 1.9,
        "price": null,
        "cuisine_types": [],
        "rating": null,
        "address": "Sofia Center, bul. \"Tsar Osvoboditel\" 12, 1000 Sofia, Bulgaria"
      },
      "geometry": {
        "type": "Point",
        "coordinates": [
          23.3308224,
          42.6944715
        ]
      }
    },
    {
      "type": "Feature",
      "properties": {
        "id": "57ad2183-7726-4093-8b34-b40a988c7143",
        "name": "Botequim da Sil - Brazilian Food, Snacks, Cakes and Desserts - Caterer",
        "vegan_score": 1.5,
        "price": null,
        "cuisine_types": [],
        "rating": null,
        "address": "g.k. Banishora, ul. \"Vranya\" 81А, 1309 Sofia, Bulgaria"
      },
      "geometry": {
        "type": "Point",
        "coordinates": [
          23.3062623,
          42.7068313
        ]
      }
    },
    {
      "type": "Feature",
      "properties": {
        "id": "8f040e80-be59-4ef2-9005-1640228cae40",
        "name": "Bristol Hotel - Best Western Plus",
        "vegan_score": 4,
        "price": null,
        "cuisine_types": [],
        "rating": null,
        "address": "Sofia Center, Hristo Botev Blvd 69, 1303 Sofia, Bulgaria"
      },
      "geometry": {
        "type": "Point",
        "coordinates": [
          23.3156849,
          42.6998602
        ]
      }
    },
    {
      "type": "Feature",
      "properties": {
        "id": "e2917910-1067-45a9-9a1f-97f6d90a58d3",
        "name": "Budapest Hotel Sofia",
        "vegan_score": 0,
        "price": null,
        "cuisine_types": [],
        "rating": null,
        "address": "Sofia Center, ul. Budapeshta 92, 1202 Sofia, Bulgaria"
      },
      "geometry": {
        "type": "Point",
        "coordinates": [
          23.3266287,
          42.7075066
        ]
      }
    },
    {
      "type": "Feature",
      "properties": {
        "id": "922a780a-709c-44b8-ace2-c78575d9eda5",
        "name": "Burger House",
        "vegan_score": 2.7,
        "price": null,
        "cuisine_types": [],
        "rating": null,
        "address": "Stefan Karadzha, ul. \"Sopot\" 31, 1510 Sofia, Bulgaria"
      },
      "geometry": {
        "type": "Point",
        "coordinates": [
          23.3596485,
          42.7087445
        ]
      }
    },
    {
      "type": "Feature",
      "properties": {
        "id": "34411748-570e-488b-9b35-d7205468b619",
        "name": "Burger Smash Bar & Dinner",
        "vegan_score": 3.4,
        "price": null,
        "cuisine_types": [],
        "rating": null,
        "address": "Old City Center, ul. \"Hristo Belchev\" 17, 1000 Sofia, Bulgaria"
      },
      "geometry": {
        "type": "Point",
        "coordinates": [
          23.3215235,
          42.6930578
        ]
      }
    },
    {
      "type": "Feature",
      "properties": {
        "id": "b31e4424-b630-406a-b2a8-9f0b6dc167fb",
        "name": "Burrata Italiana Shipka",
        "vegan_score": 0,
        "price": null,
        "cuisine_types": [],
        "rating": null,
        "address": "Doctor's Garden, Shipka Street 34, 1504 Sofia, Bulgaria"
      },
      "geometry": {
        "type": "Point",
        "coordinates": [
          23.3405175,
          42.69296
        ]
      }
    },
    {
      "type": "Feature",
      "properties": {
        "id": "c48be93b-af15-4841-a44c-c8f6e4f20839",
        "name": "By the Way",
        "vegan_score": 1.5,
        "price": null,
        "cuisine_types": [],
        "rating": null,
        "address": "Old City Center, ulitsa „Georgi S. Rakovski“ 166, 1142 Sofia, Bulgaria"
      },
      "geometry": {
        "type": "Point",
        "coordinates": [
          23.3225796,
          42.6865174
        ]
      }
    },
    {
      "type": "Feature",
      "properties": {
        "id": "a367bcc0-8399-4541-af75-f01d3dce88c7",
        "name": "CLUB 35",
        "vegan_score": 4,
        "price": null,
        "cuisine_types": [],
        "rating": null,
        "address": "Блок 35, Studentski Kompleks, ул. „Йордан Йосифов“, 1700 Sofia, Bulgaria"
      },
      "geometry": {
        "type": "Point",
        "coordinates": [
          23.3431586,
          42.6540157
        ]
      }
    },
    {
      "type": "Feature",
      "properties": {
        "id": "91d1c6cd-4293-40ff-b264-4976f8a69d27",
        "name": "Cactus",
        "vegan_score": 2.3,
        "price": null,
        "cuisine_types": [],
        "rating": null,
        "address": "улица „Христо Белчев“ 20, Old City Center, Solunska Street 14, 1000 Sofia, Bulgaria"
      },
      "geometry": {
        "type": "Point",
        "coordinates": [
          23.3211189,
          42.6927157
        ]
      }
    },
    {
      "type": "Feature",
      "properties": {
        "id": "c44aafbe-92e1-47e7-b966-fb0b83507cd2",
        "name": "Caffetteria",
        "vegan_score": 4,
        "price": null,
        "cuisine_types": [],
        "rating": null,
        "address": "Sofia Center, bul. \"Knyaginya Maria Luiza\" 9-11, 1000 Sofia, Bulgaria"
      },
      "geometry": {
        "type": "Point",
        "coordinates": [
          23.3216227,
          42.698248
        ]
      }
    },
    {
      "type": "Feature",
      "properties": {
        "id": "00b6935b-bd60-4793-84e9-805b0a0193a3",
        "name": "Cake Lab",
        "vegan_score": 4.2,
        "price": null,
        "cuisine_types": [],
        "rating": null,
        "address": "Old City Center, ul. \"Karnigradska\" 14, 1000 Sofia, Bulgaria"
      },
      "geometry": {
        "type": "Point",
        "coordinates": [
          23.3194343,
          42.6933549
        ]
      }
    },
    {
      "type": "Feature",
      "properties": {
        "id": "02ccdb5d-0e07-4d4a-89a0-f8877716f4d6",
        "name": "Cakey Bakey",
        "vegan_score": 0,
        "price": null,
        "cuisine_types": [],
        "rating": null,
        "address": "Doctor's Garden, Shipka Street 5, 1504 Sofia, Bulgaria"
      },
      "geometry": {
        "type": "Point",
        "coordinates": [
          23.3399559,
          42.6935244
        ]
      }
    },
    {
      "type": "Feature",
      "properties": {
        "id": "0d982b91-e225-4d74-84aa-7198f97d822d",
        "name": "Camino",
        "vegan_score": 1,
        "price": null,
        "cuisine_types": [],
        "rating": null,
        "address": "Old City Center, ul. \"Neofit Rilski\" 70, 1000 Sofia, Bulgaria"
      },
      "geometry": {
        "type": "Point",
        "coordinates": [
          23.3246168,
          42.6896441
        ]
      }
    },
    {
      "type": "Feature",
      "properties": {
        "id": "570cfbac-c0d5-4015-9347-f2c9a7785c55",
        "name": "Captain Cook",
        "vegan_score": 3.3,
        "price": null,
        "cuisine_types": [],
        "rating": null,
        "address": "g.k. Lozenets, Blvd \"James Bourchier\" 100, 1407 Sofia, Bulgaria"
      },
      "geometry": {
        "type": "Point",
        "coordinates": [
          23.318995,
          42.672197
        ]
      }
    },
    {
      "type": "Feature",
      "properties": {
        "id": "d0502eed-6118-4ade-a3bd-9ce2327ed7e2",
        "name": "Caramel",
        "vegan_score": 1.3,
        "price": null,
        "cuisine_types": [],
        "rating": null,
        "address": "Sofia Center, ul. \"Chernomen\" 5, 1527 Sofia, Bulgaria"
      },
      "geometry": {
        "type": "Point",
        "coordinates": [
          23.3347644,
          42.7007134
        ]
      }
    },
    {
      "type": "Feature",
      "properties": {
        "id": "83487dd6-14c8-4c4d-96c7-4934584583f1",
        "name": "Carnivale Funky Gastrotaverna",
        "vegan_score": 4.2,
        "price": null,
        "cuisine_types": [],
        "rating": null,
        "address": "Ivan Vazov, bul. \"Vitosha\" 190, 1408 Sofia, Bulgaria"
      },
      "geometry": {
        "type": "Point",
        "coordinates": [
          23.3089808,
          42.6758206
        ]
      }
    },
    {
      "type": "Feature",
      "properties": {
        "id": "952f0613-794b-4b56-b453-291872166830",
        "name": "Carrusel Club",
        "vegan_score": 0,
        "price": null,
        "cuisine_types": [],
        "rating": null,
        "address": "Old City Center, ulitsa „Georgi S. Rakovski“ 108, 1000 Sofia, Bulgaria"
      },
      "geometry": {
        "type": "Point",
        "coordinates": [
          23.3262977,
          42.6924678
        ]
      }
    },
    {
      "type": "Feature",
      "properties": {
        "id": "d0fba60d-549d-451e-9abf-b12452c5edd4",
        "name": "Caruso Pizza Center",
        "vegan_score": 2,
        "price": null,
        "cuisine_types": [],
        "rating": null,
        "address": "Sofia Center, ulitsa „Georgi S. Rakovski“ 52, 1202 Sofia, Bulgaria"
      },
      "geometry": {
        "type": "Point",
        "coordinates": [
          23.3290579,
          42.7020596
        ]
      }
    },
    {
      "type": "Feature",
      "properties": {
        "id": "9fbef00b-e52d-4cfe-b62f-f1d7f8ff0e27",
        "name": "Casa De Cuba",
        "vegan_score": 0.2,
        "price": null,
        "cuisine_types": [],
        "rating": null,
        "address": "g.k. Lozenets, ul. \"Tsvetna Gradina\" 1, 1421 Sofia, Bulgaria"
      },
      "geometry": {
        "type": "Point",
        "coordinates": [
          23.3208352,
          42.6773779
        ]
      }
    },
    {
      "type": "Feature",
      "properties": {
        "id": "cedca032-395d-4a23-b929-fadc4d62ab07",
        "name": "Casa Ferrari B&B",
        "vegan_score": 2,
        "price": null,
        "cuisine_types": [],
        "rating": null,
        "address": "Sofia Center, ul. \"Lyulin planina\" 16, 1606 Sofia, Bulgaria"
      },
      "geometry": {
        "type": "Point",
        "coordinates": [
          23.3126813,
          42.6912014
        ]
      }
    },
    {
      "type": "Feature",
      "properties": {
        "id": "72668f3f-e29f-419f-b9a8-180de1015cd4",
        "name": "Centobuchi",
        "vegan_score": 2,
        "price": null,
        "cuisine_types": [],
        "rating": null,
        "address": "g.k. Lozenets, ul. \"Midzhur\" 39, 1421 Sofia, Bulgaria"
      },
      "geometry": {
        "type": "Point",
        "coordinates": [
          23.3265187,
          42.6792385
        ]
      }
    },
    {
      "type": "Feature",
      "properties": {
        "id": "b145e505-75d6-4256-acaa-b420a13915cd",
        "name": "Chervilo",
        "vegan_score": 0,
        "price": null,
        "cuisine_types": [],
        "rating": null,
        "address": "Old City Center, bul. \"Tsar Osvoboditel\" 9, 1000 Sofia, Bulgaria"
      },
      "geometry": {
        "type": "Point",
        "coordinates": [
          23.3303976,
          42.6949955
        ]
      }
    },
    {
      "type": "Feature",
      "properties": {
        "id": "5be9f548-1bb7-49b8-a052-8d15424a037e",
        "name": "Chevermeto",
        "vegan_score": 2.5,
        "price": null,
        "cuisine_types": [],
        "rating": null,
        "address": "София, пл. България 1, Ндк, Проното, Pette Kyosheta, Pencho Slaveykov Boulevard, 1463 Sofia, Bulgaria"
      },
      "geometry": {
        "type": "Point",
        "coordinates": [
          23.316224,
          42.6829446
        ]
      }
    },
    {
      "type": "Feature",
      "properties": {
        "id": "2b6ee3e8-43a1-4541-85d3-043aa16ab007",
        "name": "Chicago",
        "vegan_score": 1.1,
        "price": null,
        "cuisine_types": [],
        "rating": null,
        "address": "Old City Center, Knyaz Alexander Dondukov Blvd Blvd 9, 1000 Sofia, Bulgaria"
      },
      "geometry": {
        "type": "Point",
        "coordinates": [
          23.3270733,
          42.6980976
        ]
      }
    },
    {
      "type": "Feature",
      "properties": {
        "id": "aa4f187a-0965-4ec9-b695-aad467796981",
        "name": "Chickeno",
        "vegan_score": 0.7,
        "price": null,
        "cuisine_types": [],
        "rating": null,
        "address": "Old City Center, ul. \"Stara Planina\" 3, 1000 Sofia, Bulgaria"
      },
      "geometry": {
        "type": "Point",
        "coordinates": [
          23.33037,
          42.69852
        ]
      }
    },
    {
      "type": "Feature",
      "properties": {
        "id": "de249530-5fcd-457d-8f2a-7641fe46c756",
        "name": "Chinese Dragon Restaurant",
        "vegan_score": 1.3,
        "price": null,
        "cuisine_types": [],
        "rating": null,
        "address": "Slavyanska St 3, Old City Center, ul. \"Slavyanska\" 3, 1000 Sofia, Bulgaria"
      },
      "geometry": {
        "type": "Point",
        "coordinates": [
          23.3283916,
          42.6935486
        ]
      }
    },
    {
      "type": "Feature",
      "properties": {
        "id": "545cba70-c612-4b2f-a38e-ae57937a645e",
        "name": "Chinese Restaurant",
        "vegan_score": 2.6,
        "price": null,
        "cuisine_types": [],
        "rating": null,
        "address": "улица „акад. Борис Стефанов\" 58 Студентски град, бл. 58, Studentski Kompleks, 1700 Sofia, Bulgaria"
      },
      "geometry": {
        "type": "Point",
        "coordinates": [
          23.3417083,
          42.6443074
        ]
      }
    },
    {
      "type": "Feature",
      "properties": {
        "id": "876960f3-69a4-4147-936f-d18da1eb216a",
        "name": "Chinese Restaurant Hua Sing Lou",
        "vegan_score": 2,
        "price": null,
        "cuisine_types": [],
        "rating": null,
        "address": "g.k. Iztok, bul. \"Dragan Tsankov\" 17, 1113 Sofia, Bulgaria"
      },
      "geometry": {
        "type": "Point",
        "coordinates": [
          23.3500123,
          42.6722158
        ]
      }
    },
    {
      "type": "Feature",
      "properties": {
        "id": "a0a2e3e5-f268-4716-9354-84604ae4e752",
        "name": "Chucky's Coffee House",
        "vegan_score": 0,
        "price": null,
        "cuisine_types": [],
        "rating": null,
        "address": "Sofia Center, ul. \"Hristo Belchev\" 29, 1000 Sofia, Bulgaria"
      },
      "geometry": {
        "type": "Point",
        "coordinates": [
          23.3210353,
          42.6918479
        ]
      }
    },
    {
      "type": "Feature",
      "properties": {
        "id": "cf7b44b0-5a9f-4839-81e2-d02bbcdb9f4f",
        "name": "Ciccione Panini Bar & Pizza #3 Gurko",
        "vegan_score": 1,
        "price": null,
        "cuisine_types": [],
        "rating": null,
        "address": "Gen. Yosif V. Gurko 9 Str., Sofia Center, ul. \"General Gurko\" 9, 1000 Sofia, Bulgaria"
      },
      "geometry": {
        "type": "Point",
        "coordinates": [
          23.3260721,
          42.6930988
        ]
      }
    },
    {
      "type": "Feature",
      "properties": {
        "id": "162f2350-c0f2-4051-9526-a1313dc8e12a",
        "name": "Cinecitta Osteria Italiana",
        "vegan_score": 2.3,
        "price": null,
        "cuisine_types": [],
        "rating": null,
        "address": "BojanaVitosha, ul. \"Kumata\" 75, 1616 Sofia, Bulgaria"
      },
      "geometry": {
        "type": "Point",
        "coordinates": [
          23.2828654,
          42.6430902
        ]
      }
    },
    {
      "type": "Feature",
      "properties": {
        "id": "fdacae24-f670-499b-b0ea-e28b10bde3b9",
        "name": "CinnaMom's bakery",
        "vegan_score": 0,
        "price": null,
        "cuisine_types": [],
        "rating": null,
        "address": "Old City Center, ul. \"Graf Ignatiev\" 37, 1400 Sofia, Bulgaria"
      },
      "geometry": {
        "type": "Point",
        "coordinates": [
          23.3284386,
          42.6886207
        ]
      }
    },
    {
      "type": "Feature",
      "properties": {
        "id": "0b31ecae-6afb-418e-9829-bf33bf02019f",
        "name": "City Avenue Hotel",
        "vegan_score": 2.5,
        "price": null,
        "cuisine_types": [],
        "rating": null,
        "address": "Sofia Center, ul. \"Osogovo\" 49, 1303 Sofia, Bulgaria"
      },
      "geometry": {
        "type": "Point",
        "coordinates": [
          23.3081074,
          42.7007858
        ]
      }
    },
    {
      "type": "Feature",
      "properties": {
        "id": "974aa424-66c0-4e8c-ab12-0b1a829541f9",
        "name": "Cleopatra Erotic Bar / Клеопатра Еротик Бар",
        "vegan_score": 1.5,
        "price": null,
        "cuisine_types": [],
        "rating": null,
        "address": "g.k. Lozenets, Blvd. \"Cherni vrah\" 25, 1421 Sofia, Bulgaria"
      },
      "geometry": {
        "type": "Point",
        "coordinates": [
          23.3221538,
          42.6777425
        ]
      }
    },
    {
      "type": "Feature",
      "properties": {
        "id": "b0f378d4-e8f4-4a7e-91fb-ff9fa85ec025",
        "name": "Coffee Point & Bakery Lavele 18",
        "vegan_score": 2.1,
        "price": null,
        "cuisine_types": [],
        "rating": null,
        "address": "Sofia Center, ul. \"Laveleye\" 18, 1000 Sofia, Bulgaria"
      },
      "geometry": {
        "type": "Point",
        "coordinates": [
          23.3193569,
          42.6967173
        ]
      }
    },
    {
      "type": "Feature",
      "properties": {
        "id": "b9d0513f-7249-40dd-a331-e167825bdf0d",
        "name": "Coffee Syndicate",
        "vegan_score": 2.3,
        "price": null,
        "cuisine_types": [],
        "rating": null,
        "address": "Old City Center, ul. \"Moskovska\" 3, 1000 Sofia, Bulgaria"
      },
      "geometry": {
        "type": "Point",
        "coordinates": [
          23.3262748,
          42.6973818
        ]
      }
    },
    {
      "type": "Feature",
      "properties": {
        "id": "0d54af1e-44f3-4cd5-9fb9-d96ed18a3354",
        "name": "CornDog",
        "vegan_score": 1.1,
        "price": null,
        "cuisine_types": [],
        "rating": null,
        "address": "Aleksandar Stamboliyski\" Blvd 101 A, 1303, ж.к. Зона Б-5, 1000 София, Bulgaria"
      },
      "geometry": {
        "type": "Point",
        "coordinates": [
          23.3090499,
          42.69844
        ]
      }
    },
    {
      "type": "Feature",
      "properties": {
        "id": "2e5e04c2-9f8a-4002-93fa-217fea5a4948",
        "name": "Cosmos Restaurant / Космос",
        "vegan_score": 1.3,
        "price": null,
        "cuisine_types": [],
        "rating": null,
        "address": "Old City Center, ul. \"Laveleye\" 19, 1000 Sofia, Bulgaria"
      },
      "geometry": {
        "type": "Point",
        "coordinates": [
          23.319002,
          42.6947414
        ]
      }
    },
    {
      "type": "Feature",
      "properties": {
        "id": "4d22b8a3-b440-4811-b36d-df266c15f0a8",
        "name": "Costa Coffee",
        "vegan_score": 2.7,
        "price": null,
        "cuisine_types": [],
        "rating": null,
        "address": "Serdika Center, Oborishte, Sitnyakovo Blvd 48, ет. 1, 1505 Sofia, Bulgaria"
      },
      "geometry": {
        "type": "Point",
        "coordinates": [
          23.3534897,
          42.6918029
        ]
      }
    },
    {
      "type": "Feature",
      "properties": {
        "id": "ebd6fb94-5d26-4a14-a538-3d344fd2356c",
        "name": "Costa Coffee",
        "vegan_score": 4.5,
        "price": null,
        "cuisine_types": [],
        "rating": null,
        "address": "Old City Center, ul. \"Knyaz Aleksandar I\" 10Б, 1000 Sofia, Bulgaria"
      },
      "geometry": {
        "type": "Point",
        "coordinates": [
          23.3243011,
          42.695192
        ]
      }
    },
    {
      "type": "Feature",
      "properties": {
        "id": "4fe98d84-1632-4a48-9bac-4db9e70fdb5e",
        "name": "Crystal Palace Boutique",
        "vegan_score": 0,
        "price": null,
        "cuisine_types": [],
        "rating": null,
        "address": "Doctor's Garden, Shipka Street 14, 1504 Sofia, Bulgaria"
      },
      "geometry": {
        "type": "Point",
        "coordinates": [
          23.3374103,
          42.6937252
        ]
      }
    },
    {
      "type": "Feature",
      "properties": {
        "id": "9560d42b-cf4b-4aec-a453-71440f772631",
        "name": "DABOV Specialty Coffee Sofia 1",
        "vegan_score": 1.9,
        "price": null,
        "cuisine_types": [],
        "rating": null,
        "address": "Old City Center, ul. \"Lyuben Karavelov\" 58, 1142 Sofia, Bulgaria"
      },
      "geometry": {
        "type": "Point",
        "coordinates": [
          23.3243869,
          42.6858367
        ]
      }
    },
    {
      "type": "Feature",
      "properties": {
        "id": "2cd5690b-4796-4ee5-8e5c-ce2881017830",
        "name": "DK Beborani",
        "vegan_score": 1.5,
        "price": null,
        "cuisine_types": [],
        "rating": null,
        "address": "Stefan Karadzha, ul. \"Lyaskovets\" 46, 1510 Sofia, Bulgaria"
      },
      "geometry": {
        "type": "Point",
        "coordinates": [
          23.3628023,
          42.7082036
        ]
      }
    },
    {
      "type": "Feature",
      "properties": {
        "id": "12059903-19f1-406f-be0c-2cf1b7b1c544",
        "name": "Da Mamma Carla and Fabio",
        "vegan_score": 2.1,
        "price": null,
        "cuisine_types": [],
        "rating": null,
        "address": "Old City Center, ul. \"Dyakon Ignatiy\" 19, 1000 Sofia, Bulgaria"
      },
      "geometry": {
        "type": "Point",
        "coordinates": [
          23.3245044,
          42.6926248
        ]
      }
    },
    {
      "type": "Feature",
      "properties": {
        "id": "a5d65a76-d490-46b8-984e-71d28bcaa78c",
        "name": "Da Nino Pizza & Food",
        "vegan_score": 2.3,
        "price": null,
        "cuisine_types": [],
        "rating": null,
        "address": "Old City Center, ул. „Алабин И. Вл.“ 46, 1000 Sofia, Bulgaria"
      },
      "geometry": {
        "type": "Point",
        "coordinates": [
          23.3205538,
          42.6948998
        ]
      }
    },
    {
      "type": "Feature",
      "properties": {
        "id": "c9d19001-beaf-4368-a6c2-37fe19f7775f",
        "name": "Deli Venue",
        "vegan_score": 0,
        "price": null,
        "cuisine_types": [],
        "rating": null,
        "address": "g.k. Lozenets, ul. \"Yakubitsa\" 2А, 1164 Sofia, Bulgaria"
      },
      "geometry": {
        "type": "Point",
        "coordinates": [
          23.3283594,
          42.6738967
        ]
      }
    },
    {
      "type": "Feature",
      "properties": {
        "id": "fb498d5a-c2c0-42ca-83ed-ee16809ce9d8",
        "name": "Diter Hotel",
        "vegan_score": 1,
        "price": null,
        "cuisine_types": [],
        "rating": null,
        "address": "Sofia Center, ul. \"Han Asparuh\" 65, 1000 Sofia, Bulgaria"
      },
      "geometry": {
        "type": "Point",
        "coordinates": [
          23.3243143,
          42.6892464
        ]
      }
    },
    {
      "type": "Feature",
      "properties": {
        "id": "f5d28fac-75e5-4a96-a376-48ca88d17d19",
        "name": "Divaka",
        "vegan_score": 3.3,
        "price": null,
        "cuisine_types": [],
        "rating": null,
        "address": "Old City Center, ul. \"Hristo Belchev\" 16, 1000 Sofia, Bulgaria"
      },
      "geometry": {
        "type": "Point",
        "coordinates": [
          23.3211711,
          42.6930773
        ]
      }
    },
    {
      "type": "Feature",
      "properties": {
        "id": "949d2a03-6471-47f2-9243-b7f7ddc6cb43",
        "name": "Divaka",
        "vegan_score": 3.3,
        "price": null,
        "cuisine_types": [],
        "rating": null,
        "address": "Old City Center, ul. \"6-ti septemvri\" 41А, 1000 Sofia, Bulgaria"
      },
      "geometry": {
        "type": "Point",
        "coordinates": [
          23.3253431,
          42.6893152
        ]
      }
    },
    {
      "type": "Feature",
      "properties": {
        "id": "a3618833-1906-4a1b-a302-d8872e0048b1",
        "name": "Divaka",
        "vegan_score": 3,
        "price": null,
        "cuisine_types": [],
        "rating": null,
        "address": "Old City Center, ul. \"William Gladstone\" 54, 1000 Sofia, Bulgaria"
      },
      "geometry": {
        "type": "Point",
        "coordinates": [
          23.3224839,
          42.6912533
        ]
      }
    },
    {
      "type": "Feature",
      "properties": {
        "id": "1415e16c-ab3e-4f92-934e-74854f2cde7f",
        "name": "Domino's Pizza",
        "vegan_score": 0,
        "price": null,
        "cuisine_types": [],
        "rating": null,
        "address": "Yuzhen, ul. \"Byala cherkva\", 1407 Sofia, Bulgaria"
      },
      "geometry": {
        "type": "Point",
        "coordinates": [
          23.3094165,
          42.6744245
        ]
      }
    },
    {
      "type": "Feature",
      "properties": {
        "id": "23e95f51-d6db-4f55-b6c4-fae99fd57ca2",
        "name": "Domino's Pizza - София - Вапцаров",
        "vegan_score": 0,
        "price": null,
        "cuisine_types": [],
        "rating": null,
        "address": "g.k. Lozenets, bul. \"Nikola Y. Vaptsarov\" 6, 1000 Sofia, Bulgaria"
      },
      "geometry": {
        "type": "Point",
        "coordinates": [
          23.3191778,
          42.6656563
        ]
      }
    },
    {
      "type": "Feature",
      "properties": {
        "id": "386f1b77-f7a9-4377-ad04-33e4bd789b59",
        "name": "Domino's Pizza - София - Гео Милев",
        "vegan_score": 0,
        "price": null,
        "cuisine_types": [],
        "rating": null,
        "address": "Geo Milev, ul. \"Alexander Zhendov\" 6, 1113 Sofia, Bulgaria"
      },
      "geometry": {
        "type": "Point",
        "coordinates": [
          23.3569615,
          42.6801776
        ]
      }
    },
    {
      "type": "Feature",
      "properties": {
        "id": "2fd016dc-d8d7-4120-8d97-a164ec853320",
        "name": "Domino's Pizza - София - Красна поляна",
        "vegan_score": 0,
        "price": null,
        "cuisine_types": [],
        "rating": null,
        "address": "ж.к. Красна поляна 3, ul. \"Pchinya\" 31, 1000 Sofia, Bulgaria"
      },
      "geometry": {
        "type": "Point",
        "coordinates": [
          23.2857593,
          42.6952843
        ]
      }
    },
    {
      "type": "Feature",
      "properties": {
        "id": "d35b3454-f4cc-4282-ad62-3d5c971df610",
        "name": "Domino's Pizza - София - Сухата река",
        "vegan_score": 0,
        "price": null,
        "cuisine_types": [],
        "rating": null,
        "address": "Poduyane, bul. \"Vladimir Vazov\" 12-13, 1517 Sofia, Bulgaria"
      },
      "geometry": {
        "type": "Point",
        "coordinates": [
          23.356481,
          42.7038303
        ]
      }
    },
    {
      "type": "Feature",
      "properties": {
        "id": "44f4a02d-9e7c-4239-8bc2-faec364331e4",
        "name": "Domino's Pizza - София - Център",
        "vegan_score": 0,
        "price": null,
        "cuisine_types": [],
        "rating": null,
        "address": "Old City Center, \"Aleksandar Stamboliyski\" Blvd 41, 1532 Sofia, Bulgaria"
      },
      "geometry": {
        "type": "Point",
        "coordinates": [
          23.317076,
          42.697224
        ]
      }
    },
    {
      "type": "Feature",
      "properties": {
        "id": "1dfec6d9-13db-41fd-ae18-bed7ebf6273e",
        "name": "Don Vito 3",
        "vegan_score": 2.5,
        "price": null,
        "cuisine_types": [],
        "rating": null,
        "address": "Sofia, Krasna Polyana, bl. 329, ж.к. Красна поляна 3, 1330 Sofia, Bulgaria"
      },
      "geometry": {
        "type": "Point",
        "coordinates": [
          23.2830472,
          42.6935346
        ]
      }
    },
    {
      "type": "Feature",
      "properties": {
        "id": "13a91a90-9ffd-44ab-b553-afa23cb19b25",
        "name": "Doner Bankya",
        "vegan_score": 0.7,
        "price": null,
        "cuisine_types": [],
        "rating": null,
        "address": "ul. \"Aleksandar Stamboliyski\" 3, 1320 Bankya, Bulgaria"
      },
      "geometry": {
        "type": "Point",
        "coordinates": [
          23.1448384,
          42.7079143
        ]
      }
    },
    {
      "type": "Feature",
      "properties": {
        "id": "e3e0d199-64d7-4818-9abb-8568e13f9b0f",
        "name": "Dream House",
        "vegan_score": 5,
        "price": null,
        "cuisine_types": [],
        "rating": null,
        "address": "Sofia Center, ул. „Алабин И. Вл.“ 50, 1000 Sofia, Bulgaria"
      },
      "geometry": {
        "type": "Point",
        "coordinates": [
          23.3214016,
          42.69474
        ]
      }
    },
    {
      "type": "Feature",
      "properties": {
        "id": "afe7557c-3fb9-4e10-8935-fb3cb88f501c",
        "name": "Edgy Veggy",
        "vegan_score": 7.4,
        "price": null,
        "cuisine_types": [],
        "rating": null,
        "address": "улица Уилям Гладстон, От страната на, Old City Center, ul. \"Knyaz Boris I\" 18Б, 1000 Sofia, Bulgaria"
      },
      "geometry": {
        "type": "Point",
        "coordinates": [
          23.3172089,
          42.691817
        ]
      }
    },
    {
      "type": "Feature",
      "properties": {
        "id": "34ddbbef-216f-474b-ae1d-a9b38272a82d",
        "name": "Edo Sushi Sofia Ring Mall",
        "vegan_score": 1.4,
        "price": null,
        "cuisine_types": [],
        "rating": null,
        "address": "Ring Mall,, в.з. Симеоново - северВитоша, Софийски околовръстен път 214, 1434 София, Bulgaria"
      },
      "geometry": {
        "type": "Point",
        "coordinates": [
          23.3523688,
          42.6237881
        ]
      }
    },
    {
      "type": "Feature",
      "properties": {
        "id": "d3844a23-5d71-48c9-a401-276a73d0c45d",
        "name": "El Shada",
        "vegan_score": 2.3,
        "price": null,
        "cuisine_types": [],
        "rating": null,
        "address": "Old City Center, ulitsa „Georgi S. Rakovski“ 134, 1000 Sofia, Bulgaria"
      },
      "geometry": {
        "type": "Point",
        "coordinates": [
          23.3230868,
          42.689767
        ]
      }
    },
    {
      "type": "Feature",
      "properties": {
        "id": "eacb7792-2e93-4559-b84e-06ee4968b029",
        "name": "Emirates Apart Residence",
        "vegan_score": 2.4,
        "price": null,
        "cuisine_types": [],
        "rating": null,
        "address": "Manastirski Livadi, blvd. \"Bulgaria\" 132, 1618 Sofia, Bulgaria"
      },
      "geometry": {
        "type": "Point",
        "coordinates": [
          23.2805747,
          42.6555824
        ]
      }
    },
    {
      "type": "Feature",
      "properties": {
        "id": "2325b829-b376-4c9a-8087-9741cea54bd2",
        "name": "Essence Bar",
        "vegan_score": 0.9,
        "price": null,
        "cuisine_types": [],
        "rating": null,
        "address": "Sofia Center, \"Aleksandar Stamboliyski\" Blvd 29, 1000 Sofia, Bulgaria"
      },
      "geometry": {
        "type": "Point",
        "coordinates": [
          23.3182563,
          42.6970909
        ]
      }
    },
    {
      "type": "Feature",
      "properties": {
        "id": "753b6a38-cf20-4ad6-a4eb-fcdef9181fc4",
        "name": "Eurostars Sofia City",
        "vegan_score": 1.5,
        "price": null,
        "cuisine_types": [],
        "rating": null,
        "address": "Old City Center, ul. \"Stara Planina\" 6, 1000 Sofia, Bulgaria"
      },
      "geometry": {
        "type": "Point",
        "coordinates": [
          23.3324375,
          42.6990215
        ]
      }
    },
    {
      "type": "Feature",
      "properties": {
        "id": "1efbeb4e-3caa-4451-8dc4-f2a484895dec",
        "name": "FLOW Coffee and Pastry",
        "vegan_score": 1.3,
        "price": null,
        "cuisine_types": [],
        "rating": null,
        "address": "Old City Center, ul. Budapeshta 26, 1202 Sofia, Bulgaria"
      },
      "geometry": {
        "type": "Point",
        "coordinates": [
          23.3276588,
          42.7002864
        ]
      }
    },
    {
      "type": "Feature",
      "properties": {
        "id": "d907bbf2-73f3-4a84-908b-d92a7be1cbc0",
        "name": "Fanshan Restaurant",
        "vegan_score": 2.3,
        "price": null,
        "cuisine_types": [],
        "rating": null,
        "address": "Sofia, Sofia Center, Struma St 2, 1202 Центр, Bulgaria"
      },
      "geometry": {
        "type": "Point",
        "coordinates": [
          23.3233452,
          42.7019241
        ]
      }
    },
    {
      "type": "Feature",
      "properties": {
        "id": "704708a6-6763-4db3-89c6-13535e21c8d1",
        "name": "Fantastic Food",
        "vegan_score": 1.1,
        "price": null,
        "cuisine_types": [],
        "rating": null,
        "address": "Old City Center, bul. \"Knyaginya Maria Luiza\", 1000 Sofia, Bulgaria"
      },
      "geometry": {
        "type": "Point",
        "coordinates": [
          23.3224009,
          42.7002164
        ]
      }
    },
    {
      "type": "Feature",
      "properties": {
        "id": "75a59e97-8d90-4893-8b74-5081bdbb5faf",
        "name": "Fast Food Vkusotilnica",
        "vegan_score": 3.2,
        "price": null,
        "cuisine_types": [],
        "rating": null,
        "address": "Old City Center, ul. \"Tsar Shishman\" 4, 1191 Sofia, Bulgaria"
      },
      "geometry": {
        "type": "Point",
        "coordinates": [
          23.33126,
          42.692799
        ]
      }
    },
    {
      "type": "Feature",
      "properties": {
        "id": "a1f7d63b-a36d-4f5f-81d1-3a9f69d3ce14",
        "name": "Felicità",
        "vegan_score": 2,
        "price": null,
        "cuisine_types": [],
        "rating": null,
        "address": "Sofia Center, ul. \"Iskar\" 11, 1000 Sofia, Bulgaria"
      },
      "geometry": {
        "type": "Point",
        "coordinates": [
          23.3262065,
          42.6996501
        ]
      }
    },
    {
      "type": "Feature",
      "properties": {
        "id": "059951b3-8f79-42ab-9286-47780511a582",
        "name": "Fish A Chick",
        "vegan_score": 1.2,
        "price": null,
        "cuisine_types": [],
        "rating": null,
        "address": "Zona B-5, \"Aleksandar Stamboliyski\" Blvd 101 A, 1303 Sofia, Bulgaria"
      },
      "geometry": {
        "type": "Point",
        "coordinates": [
          23.3083294,
          42.6982491
        ]
      }
    },
    {
      "type": "Feature",
      "properties": {
        "id": "675b6e24-0661-4200-a008-b48694a0ea34",
        "name": "Franco's Pizza",
        "vegan_score": 0,
        "price": null,
        "cuisine_types": [],
        "rating": null,
        "address": "Sofia Center, ul. \"Han Asparuh\" 37, 1000 Sofia, Bulgaria"
      },
      "geometry": {
        "type": "Point",
        "coordinates": [
          23.3196749,
          42.6896761
        ]
      }
    },
    {
      "type": "Feature",
      "properties": {
        "id": "bd272a74-7dd2-4999-b7dd-f66f0d60c84e",
        "name": "Friends restaurant",
        "vegan_score": 2.5,
        "price": null,
        "cuisine_types": [],
        "rating": null,
        "address": "ул. „Георги Сава Раковски“ 28, 1320 Bankya, Bulgaria"
      },
      "geometry": {
        "type": "Point",
        "coordinates": [
          23.1487905,
          42.7103787
        ]
      }
    },
    {
      "type": "Feature",
      "properties": {
        "id": "29b1d4b7-ed76-4904-b9cc-86b988e7b299",
        "name": "Fryday",
        "vegan_score": 2.3,
        "price": null,
        "cuisine_types": [],
        "rating": null,
        "address": "Old City Center, ulitsa „Georgi S. Rakovski“ 116, 1000 Sofia, Bulgaria"
      },
      "geometry": {
        "type": "Point",
        "coordinates": [
          23.3252216,
          42.6917192
        ]
      }
    },
    {
      "type": "Feature",
      "properties": {
        "id": "8294bef8-88c5-4c81-8343-e959cb4fd536",
        "name": "Furna",
        "vegan_score": 4.8,
        "price": null,
        "cuisine_types": [],
        "rating": null,
        "address": "Old City Center, bul.\"Stefan Stambolov\" 3, 1000 Sofia, Bulgaria"
      },
      "geometry": {
        "type": "Point",
        "coordinates": [
          23.3161194,
          42.6991902
        ]
      }
    },
    {
      "type": "Feature",
      "properties": {
        "id": "90ef1dbc-4e40-47e0-973f-b0bb53c2d5a2",
        "name": "Garam Masala Indian Restaurant Sofia",
        "vegan_score": 0,
        "price": null,
        "cuisine_types": [],
        "rating": null,
        "address": "M92Q+QGC, 7-Mi KilometarMladost, Boulevard \"Tsarigradsko shose\" 72, 1784 Sofia, Bulgaria"
      },
      "geometry": {
        "type": "Point",
        "coordinates": [
          23.3886677,
          42.6519197
        ]
      }
    },
    {
      "type": "Feature",
      "properties": {
        "id": "38ac30be-0a09-4301-a94f-147b6ab1a886",
        "name": "Garden restaurant Yoli",
        "vegan_score": 3.3,
        "price": null,
        "cuisine_types": [],
        "rating": null,
        "address": "g.k. Darvenitsa, ul. \"Ivan Borimechkata\" 22, 1756 Sofia, Bulgaria"
      },
      "geometry": {
        "type": "Point",
        "coordinates": [
          23.3623353,
          42.6534084
        ]
      }
    },
    {
      "type": "Feature",
      "properties": {
        "id": "36f7bb89-6384-4caa-a586-6f404d6b6d2a",
        "name": "Gentoo Specialty Coffee",
        "vegan_score": 3.1,
        "price": null,
        "cuisine_types": [],
        "rating": null,
        "address": "Old City Center, ul. \"Neofit Rilski\" 34, 1000 Sofia, Bulgaria"
      },
      "geometry": {
        "type": "Point",
        "coordinates": [
          23.3187904,
          42.6902602
        ]
      }
    },
    {
      "type": "Feature",
      "properties": {
        "id": "8f3a4b3a-8039-43a7-9d25-41c5b5526f0b",
        "name": "Globe Systems",
        "vegan_score": 0,
        "price": null,
        "cuisine_types": [],
        "rating": null,
        "address": "Oborishte, ul. \"Murphy\" 4, 1505 Sofia, Bulgaria"
      },
      "geometry": {
        "type": "Point",
        "coordinates": [
          23.3481386,
          42.6943561
        ]
      }
    },
    {
      "type": "Feature",
      "properties": {
        "id": "7414b6f8-b385-4c85-b52b-2fe733b2e244",
        "name": "Grab Go Pizza Station Vitosha",
        "vegan_score": 1.3,
        "price": null,
        "cuisine_types": [],
        "rating": null,
        "address": "Old City Center, ул. „Алабин И. Вл.“ 46, 1000 Sofia, Bulgaria"
      },
      "geometry": {
        "type": "Point",
        "coordinates": [
          23.3205201,
          42.6949037
        ]
      }
    },
    {
      "type": "Feature",
      "properties": {
        "id": "187d2dcb-ea0f-4575-b100-79ad995f1c4a",
        "name": "Gramophone Live&Event Club",
        "vegan_score": 0,
        "price": null,
        "cuisine_types": [],
        "rating": null,
        "address": "Old City Center, ul. Budapeshta 6, 1000 Sofia, Bulgaria"
      },
      "geometry": {
        "type": "Point",
        "coordinates": [
          23.3281757,
          42.697646
        ]
      }
    },
    {
      "type": "Feature",
      "properties": {
        "id": "e5b193cc-68b2-4da7-b16b-b0ea5fb0f8a7",
        "name": "Grand Hotel Sofia",
        "vegan_score": 0.5,
        "price": null,
        "cuisine_types": [],
        "rating": null,
        "address": "1, Old City Center, ul. \"General Gurko\" str, 1000 Sofia, Bulgaria"
      },
      "geometry": {
        "type": "Point",
        "coordinates": [
          23.3247979,
          42.6940925
        ]
      }
    },
    {
      "type": "Feature",
      "properties": {
        "id": "0fcb2b16-0177-491a-84a3-fe42d0b78471",
        "name": "Green Deli Cafe",
        "vegan_score": 5,
        "price": null,
        "cuisine_types": [],
        "rating": null,
        "address": "Old City Center, \"Aleksandar Stamboliyski\" Blvd 35, 1000 Sofia, Bulgaria"
      },
      "geometry": {
        "type": "Point",
        "coordinates": [
          23.3175375,
          42.6970089
        ]
      }
    },
    {
      "type": "Feature",
      "properties": {
        "id": "64e64515-783d-4488-a77c-9a73e0c25e5f",
        "name": "Green Deli Café",
        "vegan_score": 2,
        "price": null,
        "cuisine_types": [],
        "rating": null,
        "address": "Sofia Center, ulitsa „Georgi S. Rakovski“ 165, 1000 Sofia, Bulgaria"
      },
      "geometry": {
        "type": "Point",
        "coordinates": [
          23.3235359,
          42.6897784
        ]
      }
    },
    {
      "type": "Feature",
      "properties": {
        "id": "490fffb5-638c-4d5d-b7b5-88ed730e3e84",
        "name": "HAMACHI-Ni - Japanese Fish Restaurant",
        "vegan_score": 3.3,
        "price": null,
        "cuisine_types": [],
        "rating": null,
        "address": "Sofia Center, ulitsa „Georgi S. Rakovski“ 179, 1142 Sofia, Bulgaria"
      },
      "geometry": {
        "type": "Point",
        "coordinates": [
          23.3231043,
          42.6875185
        ]
      }
    },
    {
      "type": "Feature",
      "properties": {
        "id": "670c213e-0e6c-4a99-9f0a-913ddc35ea12",
        "name": "Hadjidraganov's Houses Restaurant",
        "vegan_score": 0,
        "price": null,
        "cuisine_types": [],
        "rating": null,
        "address": "Sofia Center, ul. \"Kozloduy\" 75, 1202 Sofia, Bulgaria"
      },
      "geometry": {
        "type": "Point",
        "coordinates": [
          23.3226135,
          42.7065566
        ]
      }
    },
    {
      "type": "Feature",
      "properties": {
        "id": "cc95d351-da68-48e8-b27e-422088aa5fdc",
        "name": "Haiku Sushi",
        "vegan_score": 1.7,
        "price": null,
        "cuisine_types": [],
        "rating": null,
        "address": "g.k. Lozenets, ul. \"Sveti Teodosiy Tarnovski\" 60, 1407 Sofia, Bulgaria"
      },
      "geometry": {
        "type": "Point",
        "coordinates": [
          23.3260244,
          42.6723337
        ]
      }
    },
    {
      "type": "Feature",
      "properties": {
        "id": "9de21e36-3627-4c2f-af16-a933cc095909",
        "name": "Halbite Beer Hall",
        "vegan_score": 2.5,
        "price": null,
        "cuisine_types": [],
        "rating": null,
        "address": "Old City Center, ul. \"Neofit Rilski\" 72, 1000 Sofia, Bulgaria"
      },
      "geometry": {
        "type": "Point",
        "coordinates": [
          23.3247364,
          42.6897024
        ]
      }
    },
    {
      "type": "Feature",
      "properties": {
        "id": "00694466-8b8d-4e4e-a3a4-6b9c85db0186",
        "name": "Happy Bar & Grill",
        "vegan_score": 4.8,
        "price": null,
        "cuisine_types": [],
        "rating": null,
        "address": "кв. Лозенец, ul. \"Bogatitsa\" 36, 1407 Sofia, Bulgaria"
      },
      "geometry": {
        "type": "Point",
        "coordinates": [
          23.3137092,
          42.6702937
        ]
      }
    },
    {
      "type": "Feature",
      "properties": {
        "id": "fed8f5cb-fe12-417c-8299-a0804f2b83d3",
        "name": "Happy Bar & Grill",
        "vegan_score": 2.7,
        "price": null,
        "cuisine_types": [],
        "rating": null,
        "address": "Old City Center, pl. \"Sveta Nedelya\" 4, 1000 Sofia, Bulgaria"
      },
      "geometry": {
        "type": "Point",
        "coordinates": [
          23.3204691,
          42.6965704
        ]
      }
    },
    {
      "type": "Feature",
      "properties": {
        "id": "eec0a92d-bc2f-4800-ae9e-c7e9930547ba",
        "name": "Happy Bar & Grill Paradise Center",
        "vegan_score": 3.1,
        "price": null,
        "cuisine_types": [],
        "rating": null,
        "address": "Hladilnika, Blvd. \"Cherni vrah\" 100, level 2, 1407 Sofia, Bulgaria"
      },
      "geometry": {
        "type": "Point",
        "coordinates": [
          23.3143832,
          42.6574636
        ]
      }
    },
    {
      "type": "Feature",
      "properties": {
        "id": "efbd53f4-c9b2-4307-9d6b-f6ebf7ec8179",
        "name": "Happy Bar & Grill Rakovski",
        "vegan_score": 3.5,
        "price": null,
        "cuisine_types": [],
        "rating": null,
        "address": "Sofia street, Old City Center, ulitsa „Georgi S. Rakovski“ 145А, 1000 Sofia, Bulgaria"
      },
      "geometry": {
        "type": "Point",
        "coordinates": [
          23.3262742,
          42.6920395
        ]
      }
    },
    {
      "type": "Feature",
      "properties": {
        "id": "3524b3ea-8beb-46cd-afa8-7df8ebdb730a",
        "name": "Hasienda Restaurant",
        "vegan_score": 3,
        "price": null,
        "cuisine_types": [],
        "rating": null,
        "address": "ж.к. Лагера, bul. \"Tsar Boris III\" 94, 1612 Sofia, Bulgaria"
      },
      "geometry": {
        "type": "Point",
        "coordinates": [
          23.2873303,
          42.6805778
        ]
      }
    },
    {
      "type": "Feature",
      "properties": {
        "id": "b44b1449-f31b-46f2-b952-d0d4ddab9ad9",
        "name": "Hell pizza&sandwiches",
        "vegan_score": 1,
        "price": null,
        "cuisine_types": [],
        "rating": null,
        "address": "Sofia Center, ul. \"Knyaz Boris I\" 99, 1000 Sofia, Bulgaria"
      },
      "geometry": {
        "type": "Point",
        "coordinates": [
          23.3184683,
          42.6960284
        ]
      }
    },
    {
      "type": "Feature",
      "properties": {
        "id": "3e384edc-e0aa-492b-8ef5-16500898676c",
        "name": "Hemingway Restaurant",
        "vegan_score": 2.8,
        "price": null,
        "cuisine_types": [],
        "rating": null,
        "address": "ul. \"Aleksandar Stamboliyski\" 3, 1320 Bankya, Bulgaria"
      },
      "geometry": {
        "type": "Point",
        "coordinates": [
          23.1444587,
          42.707849
        ]
      }
    },
    {
      "type": "Feature",
      "properties": {
        "id": "c73cf606-d801-4fb8-bf86-c240b8104744",
        "name": "Hemus Hotel",
        "vegan_score": 1.5,
        "price": null,
        "cuisine_types": [],
        "rating": null,
        "address": "g.k. Lozenets, Blvd. \"Cherni vrah\" 25, 1421 Sofia, Bulgaria"
      },
      "geometry": {
        "type": "Point",
        "coordinates": [
          23.3221254,
          42.6778288
        ]
      }
    },
    {
      "type": "Feature",
      "properties": {
        "id": "d83593c9-7704-431a-9fdf-35f0cfbf71e3",
        "name": "Hesburger",
        "vegan_score": 1.5,
        "price": null,
        "cuisine_types": [],
        "rating": null,
        "address": "Old City Center, ул. „Алабин И. Вл.“ 29, 1000 Sofia, Bulgaria"
      },
      "geometry": {
        "type": "Point",
        "coordinates": [
          23.3210718,
          42.6950064
        ]
      }
    },
    {
      "type": "Feature",
      "properties": {
        "id": "1cc17796-8398-4e30-8329-58d95178d650",
        "name": "Hilton Sofia",
        "vegan_score": 2.5,
        "price": null,
        "cuisine_types": [],
        "rating": null,
        "address": "g.k. Lozenets, blvd. \"Bulgaria\" 1, 1421 Sofia, Bulgaria"
      },
      "geometry": {
        "type": "Point",
        "coordinates": [
          23.3196967,
          42.6813225
        ]
      }
    },
    {
      "type": "Feature",
      "properties": {
        "id": "d9225d2f-6901-49cd-a9b1-b7a354b3561d",
        "name": "Hostel E-Sport",
        "vegan_score": 1.5,
        "price": null,
        "cuisine_types": [],
        "rating": null,
        "address": "Sofia Center, ul. \"Tsar Simeon\" 14, 1000 Sofia, Bulgaria"
      },
      "geometry": {
        "type": "Point",
        "coordinates": [
          23.332077,
          42.7027054
        ]
      }
    },
    {
      "type": "Feature",
      "properties": {
        "id": "23a33141-708e-42d3-aa34-5b63f89819c9",
        "name": "Hostel Mostel",
        "vegan_score": 0,
        "price": null,
        "cuisine_types": [],
        "rating": null,
        "address": "Sofia Center, bul. \"Makedonia\" 2A, 1000 Sofia, Bulgaria"
      },
      "geometry": {
        "type": "Point",
        "coordinates": [
          23.3146523,
          42.6947258
        ]
      }
    },
    {
      "type": "Feature",
      "properties": {
        "id": "6e94f5ce-a2d1-41fe-8e9f-5274e2ce5a04",
        "name": "Hotel \"Niky\"",
        "vegan_score": 0.5,
        "price": null,
        "cuisine_types": [],
        "rating": null,
        "address": "Old City Center, ul. \"Neofit Rilski\" 16, 1000 Sofia, Bulgaria"
      },
      "geometry": {
        "type": "Point",
        "coordinates": [
          23.3166077,
          42.6906953
        ]
      }
    },
    {
      "type": "Feature",
      "properties": {
        "id": "574a4b47-abcb-4dae-be46-a8cc58321e70",
        "name": "Hotel \"Strawberry 88\"",
        "vegan_score": 1.3,
        "price": null,
        "cuisine_types": [],
        "rating": null,
        "address": "кв.,,, в.з. Симеоново - северVitosha, ul. \"Akademik Dimitar Angelov\" 4, 1434 Sofia, Bulgaria"
      },
      "geometry": {
        "type": "Point",
        "coordinates": [
          23.3374295,
          42.6195423
        ]
      }
    },
    {
      "type": "Feature",
      "properties": {
        "id": "183ebcfa-09b7-4265-a1b2-859dab5236d8",
        "name": "Hotel Adria",
        "vegan_score": 0,
        "price": null,
        "cuisine_types": [],
        "rating": null,
        "address": "Sofia Center, ul. \"Knyaz Boris I\" 207, 1202 Sofia, Bulgaria"
      },
      "geometry": {
        "type": "Point",
        "coordinates": [
          23.3215885,
          42.7075552
        ]
      }
    },
    {
      "type": "Feature",
      "properties": {
        "id": "b77ad05c-ba5a-4168-b58c-1f6e3eaf0dfb",
        "name": "Hotel Anel",
        "vegan_score": 0,
        "price": null,
        "cuisine_types": [],
        "rating": null,
        "address": "Pette Kyosheta, bul. \"Todor Alexandrov\" 14, 1303 Sofia, Bulgaria"
      },
      "geometry": {
        "type": "Point",
        "coordinates": [
          23.3142929,
          42.6993276
        ]
      }
    },
    {
      "type": "Feature",
      "properties": {
        "id": "c5db9343-5bcf-4ce8-a584-21e42e1cd667",
        "name": "Hotel Aris",
        "vegan_score": 1.5,
        "price": null,
        "cuisine_types": [],
        "rating": null,
        "address": "Sofia Center, ul. \"Seliolu\" str, 1, 1202 Sofia, Bulgaria"
      },
      "geometry": {
        "type": "Point",
        "coordinates": [
          23.3213958,
          42.7072517
        ]
      }
    },
    {
      "type": "Feature",
      "properties": {
        "id": "5db0dcd3-7f09-4efa-ac18-892f87a9e855",
        "name": "Hotel Central Club",
        "vegan_score": 0,
        "price": null,
        "cuisine_types": [],
        "rating": null,
        "address": "Old City Center, bul. \"Knyaginya Maria Luiza\" 20, 1000 Sofia, Bulgaria"
      },
      "geometry": {
        "type": "Point",
        "coordinates": [
          23.3228567,
          42.7007785
        ]
      }
    },
    {
      "type": "Feature",
      "properties": {
        "id": "243b186b-56e5-468c-9b60-ab711838eccf",
        "name": "Hotel Cheap",
        "vegan_score": 0,
        "price": null,
        "cuisine_types": [],
        "rating": null,
        "address": "Sofia Center, ul. \"Knyaz Boris I\" 203, 1202 Sofia, Bulgaria"
      },
      "geometry": {
        "type": "Point",
        "coordinates": [
          23.3216836,
          42.7072339
        ]
      }
    },
    {
      "type": "Feature",
      "properties": {
        "id": "94c90bb7-5404-479c-83ea-eaf6218c7168",
        "name": "Hotel Downtown",
        "vegan_score": 1.7,
        "price": null,
        "cuisine_types": [],
        "rating": null,
        "address": "Old City Center, bul. \"Vasil Levski\" 27А, 1040 Sofia, Bulgaria"
      },
      "geometry": {
        "type": "Point",
        "coordinates": [
          23.3247548,
          42.6869383
        ]
      }
    },
    {
      "type": "Feature",
      "properties": {
        "id": "a9c8a7c5-51d4-4ec0-b069-fd66eb6c85ee",
        "name": "Hotel Favorit",
        "vegan_score": 0,
        "price": null,
        "cuisine_types": [],
        "rating": null,
        "address": "Sofia Center, ul. \"Knyaz Boris I\" 193, 1202 Sofia, Bulgaria"
      },
      "geometry": {
        "type": "Point",
        "coordinates": [
          23.321717,
          42.706861
        ]
      }
    },
    {
      "type": "Feature",
      "properties": {
        "id": "ed30a593-f8bc-4b3e-b3d8-661a78311b0d",
        "name": "Hotel Forum",
        "vegan_score": 3,
        "price": null,
        "cuisine_types": [],
        "rating": null,
        "address": "Hipodruma, bul. \"Tsar Boris III\" 41, 1612 Sofia, Bulgaria"
      },
      "geometry": {
        "type": "Point",
        "coordinates": [
          23.2971313,
          42.6842598
        ]
      }
    },
    {
      "type": "Feature",
      "properties": {
        "id": "bdc988c1-fd10-4bc2-baf3-14df0d2257f7",
        "name": "Hotel Jasmin",
        "vegan_score": 1.3,
        "price": null,
        "cuisine_types": [],
        "rating": null,
        "address": "в.з. Симеоново - северVitosha, Boulevard \"Simeonovsko Shose 252, 1434 Sofia, Bulgaria"
      },
      "geometry": {
        "type": "Point",
        "coordinates": [
          23.3324439,
          42.6232609
        ]
      }
    },
    {
      "type": "Feature",
      "properties": {
        "id": "564de97e-9f87-4263-a167-4f636df070a5",
        "name": "Hotel Knyaz Boris I",
        "vegan_score": 1.5,
        "price": null,
        "cuisine_types": [],
        "rating": null,
        "address": "Sofia Center, ul. \"Knyaz Boris I\" 188, 1202 Sofia, Bulgaria"
      },
      "geometry": {
        "type": "Point",
        "coordinates": [
          23.3214934,
          42.7047804
        ]
      }
    },
    {
      "type": "Feature",
      "properties": {
        "id": "c42b6139-094f-4b8b-bbb9-032157269f71",
        "name": "Hotel LION Sofia",
        "vegan_score": 0,
        "price": null,
        "cuisine_types": [],
        "rating": null,
        "address": "Sofia Center, bul. \"Knyaginya Maria Luiza\" 60, 1202 Sofia, Bulgaria"
      },
      "geometry": {
        "type": "Point",
        "coordinates": [
          23.3239362,
          42.7044354
        ]
      }
    },
    {
      "type": "Feature",
      "properties": {
        "id": "4776f18a-f241-4303-a224-c40ee19a1cc6",
        "name": "Hotel Restaurant Chairite",
        "vegan_score": 2.8,
        "price": null,
        "cuisine_types": [],
        "rating": null,
        "address": "1434, в.з. Симеоново - изтокVitosha, Boulevard \"Simeonovsko Shose 269, 1434 Sofia, Bulgaria"
      },
      "geometry": {
        "type": "Point",
        "coordinates": [
          23.3479651,
          42.606187
        ]
      }
    },
    {
      "type": "Feature",
      "properties": {
        "id": "a776b789-edf7-42ed-a37a-46210dcafd26",
        "name": "Hotel Rila Sofia",
        "vegan_score": 0,
        "price": null,
        "cuisine_types": [],
        "rating": null,
        "address": "Sofia Center, ul. \"Tsar Kaloyan\" 6, 1000 Sofia, Bulgaria"
      },
      "geometry": {
        "type": "Point",
        "coordinates": [
          23.3230708,
          42.6955606
        ]
      }
    },
    {
      "type": "Feature",
      "properties": {
        "id": "fd141d51-27b1-4684-ae13-c4ec5e43b7b8",
        "name": "Hotel Simona Complex Sofia",
        "vegan_score": 1.3,
        "price": null,
        "cuisine_types": [],
        "rating": null,
        "address": "Складово-производствена зона - Модерно предградие, ul. \"Okolovrasten pat\" 721, 1360 Sofia, Bulgaria"
      },
      "geometry": {
        "type": "Point",
        "coordinates": [
          23.2524987,
          42.7402805
        ]
      }
    },
    {
      "type": "Feature",
      "properties": {
        "id": "0dc2585d-a1ce-417c-9abe-5712a7bf7b7c",
        "name": "Hotel Slavyanska Beseda",
        "vegan_score": 0,
        "price": null,
        "cuisine_types": [],
        "rating": null,
        "address": "Old City Center, ul. \"Slavyanska\" 3, 1000 Sofia, Bulgaria"
      },
      "geometry": {
        "type": "Point",
        "coordinates": [
          23.3283693,
          42.6935973
        ]
      }
    },
    {
      "type": "Feature",
      "properties": {
        "id": "ef258879-0df7-4cb7-ae34-b3e74b3577ec",
        "name": "Hotel Sofia Place",
        "vegan_score": 0,
        "price": null,
        "cuisine_types": [],
        "rating": null,
        "address": "Sofia Center, ul. \"Hristo Belchev\" 29, 1000 Sofia, Bulgaria"
      },
      "geometry": {
        "type": "Point",
        "coordinates": [
          23.3211009,
          42.6919389
        ]
      }
    },
    {
      "type": "Feature",
      "properties": {
        "id": "f2c57c6f-4e2d-49d2-9bda-472e3bde3cc8",
        "name": "Hotel Sylvia",
        "vegan_score": 0,
        "price": null,
        "cuisine_types": [],
        "rating": null,
        "address": "g.k. Banishora, ul. \"Sofroniy Vrachanski\" 149, 1233 Sofia, Bulgaria"
      },
      "geometry": {
        "type": "Point",
        "coordinates": [
          23.3171915,
          42.7105256
        ]
      }
    },
    {
      "type": "Feature",
      "properties": {
        "id": "81d43228-1374-4405-85ba-539c998c8a50",
        "name": "Hotel ZOO Sofia",
        "vegan_score": 4,
        "price": null,
        "cuisine_types": [],
        "rating": null,
        "address": "zh.g. Zoopark, Boulevard \"Simeonovsko Shose 6, 1700 Sofia, Bulgaria"
      },
      "geometry": {
        "type": "Point",
        "coordinates": [
          23.3361347,
          42.658576
        ]
      }
    },
    {
      "type": "Feature",
      "properties": {
        "id": "660c0653-6ae8-40bf-a81d-b6f78ce85fea",
        "name": "Il Rustico",
        "vegan_score": 2.3,
        "price": null,
        "cuisine_types": [],
        "rating": null,
        "address": "KinotsentarVitosha, ul. \"Nartsis\" 58, 1415 Sofia, Bulgaria"
      },
      "geometry": {
        "type": "Point",
        "coordinates": [
          23.3011188,
          42.6357151
        ]
      }
    },
    {
      "type": "Feature",
      "properties": {
        "id": "2ce69e72-a765-48fa-834e-248e7a98bba3",
        "name": "India House Restaurant",
        "vegan_score": 0,
        "price": null,
        "cuisine_types": [],
        "rating": null,
        "address": "Old City Center, ul. \"Han Asparuh\" 3, 1463 Sofia, Bulgaria"
      },
      "geometry": {
        "type": "Point",
        "coordinates": [
          23.3146813,
          42.6903318
        ]
      }
    },
    {
      "type": "Feature",
      "properties": {
        "id": "8679fd3d-075e-4047-bd64-42d2d8b12777",
        "name": "Indian Restaurant Dilwale",
        "vegan_score": 3.9,
        "price": null,
        "cuisine_types": [],
        "rating": null,
        "address": "Sofia Center, ul. \"Otets Paisiy\" 51, 1303 Sofia, Bulgaria"
      },
      "geometry": {
        "type": "Point",
        "coordinates": [
          23.3131759,
          42.700934
        ]
      }
    },
    {
      "type": "Feature",
      "properties": {
        "id": "519c4646-980f-4f3e-bfdd-550ed34a1dcb",
        "name": "Insomnia Pizza - Инсомниа Света троица",
        "vegan_score": 1.3,
        "price": null,
        "cuisine_types": [],
        "rating": null,
        "address": "Sveta Troitsa, ul. \"Babina Polyana\", 1309 Sofia, Bulgaria"
      },
      "geometry": {
        "type": "Point",
        "coordinates": [
          23.290908,
          42.7103625
        ]
      }
    },
    {
      "type": "Feature",
      "properties": {
        "id": "a6e7e427-6569-46ad-881b-92d5f5a6d1ad",
        "name": "Insomnia Pizza - Инсомния Хаджи Димитър",
        "vegan_score": 2,
        "price": null,
        "cuisine_types": [],
        "rating": null,
        "address": "ul. \"Rezbarska\" 3, 1510 Sofia, Bulgaria"
      },
      "geometry": {
        "type": "Point",
        "coordinates": [
          23.346043,
          42.7100887
        ]
      }
    },
    {
      "type": "Feature",
      "properties": {
        "id": "ad0523aa-5750-4c56-a2bd-55a617167e73",
        "name": "Introvert Maria Luisa",
        "vegan_score": 0,
        "price": null,
        "cuisine_types": [],
        "rating": null,
        "address": "29 \"Knyaginya, Sofia Center, bul. \"Knyaginya Maria Luiza\", 1000 Sofia, Bulgaria"
      },
      "geometry": {
        "type": "Point",
        "coordinates": [
          23.3222269,
          42.7005265
        ]
      }
    },
    {
      "type": "Feature",
      "properties": {
        "id": "b1616bff-98a9-43c5-a75f-5e6eb30b85a4",
        "name": "Italiashop.bg",
        "vegan_score": 0.6,
        "price": null,
        "cuisine_types": [],
        "rating": null,
        "address": "Yuzhen Park, ul. \"Tsvetna Gradina\" 72, 1421 Sofia, Bulgaria"
      },
      "geometry": {
        "type": "Point",
        "coordinates": [
          23.3129008,
          42.6716269
        ]
      }
    },
    {
      "type": "Feature",
      "properties": {
        "id": "d02e7786-61d1-4f66-9b59-79c8349157c1",
        "name": "Ivanko Emanuilov - Emko",
        "vegan_score": 1.3,
        "price": null,
        "cuisine_types": [],
        "rating": null,
        "address": "Oborishte, ul. \"Professor Djovani Gorini\" 4, 1505 Sofia, Bulgaria"
      },
      "geometry": {
        "type": "Point",
        "coordinates": [
          23.3485159,
          42.6930372
        ]
      }
    },
    {
      "type": "Feature",
      "properties": {
        "id": "17b588b3-4732-4f27-97aa-5caa20a981c8",
        "name": "Izzy's Coffee and Brunch",
        "vegan_score": 0,
        "price": null,
        "cuisine_types": [],
        "rating": null,
        "address": "Sofia Center, Knyagina Maria Luisa Blvd 17, 1000 Sofia, Bulgaria"
      },
      "geometry": {
        "type": "Point",
        "coordinates": [
          23.3214739,
          42.6988212
        ]
      }
    },
    {
      "type": "Feature",
      "properties": {
        "id": "3a1c627a-0384-4970-a9ec-3c4df7d6428d",
        "name": "J.J. Murphy's",
        "vegan_score": 0,
        "price": null,
        "cuisine_types": [],
        "rating": null,
        "address": "Old City Center, ul. \"Karnigradska\" 6, 1000 Sofia, Bulgaria"
      },
      "geometry": {
        "type": "Point",
        "coordinates": [
          23.3185093,
          42.6935028
        ]
      }
    },
    {
      "type": "Feature",
      "properties": {
        "id": "ed9771cf-7902-4a82-ba8b-c8a7c192e0a1",
        "name": "JAZU by Hamachi",
        "vegan_score": 1.7,
        "price": null,
        "cuisine_types": [],
        "rating": null,
        "address": "55, business park EXPO 2000, Промишлена зона Хладилника, bul. \"Nikola Y. Vaptsarov\" blvd, 1407 Sofia, Bulgaria"
      },
      "geometry": {
        "type": "Point",
        "coordinates": [
          23.325348,
          42.667108
        ]
      }
    },
    {
      "type": "Feature",
      "properties": {
        "id": "c340aa13-3bad-47e6-b1fb-d5ac751c8a48",
        "name": "JIRU Asian Restaurant",
        "vegan_score": 2.6,
        "price": null,
        "cuisine_types": [],
        "rating": null,
        "address": "Sofia Center, bul. \"Tsar Osvoboditel\" 16, 1000 Sofia, Bulgaria"
      },
      "geometry": {
        "type": "Point",
        "coordinates": [
          23.3312987,
          42.6941519
        ]
      }
    },
    {
      "type": "Feature",
      "properties": {
        "id": "5adae6d5-3092-4b27-bcdf-43bddb58ac1c",
        "name": "JUNGLE BURGER",
        "vegan_score": 2.9,
        "price": null,
        "cuisine_types": [],
        "rating": null,
        "address": "Borovo, ul. \"Topli dol\" 6, 1680 Sofia, Bulgaria"
      },
      "geometry": {
        "type": "Point",
        "coordinates": [
          23.2897498,
          42.6701674
        ]
      }
    },
    {
      "type": "Feature",
      "properties": {
        "id": "5d4e14cb-e23e-4fe3-a564-5d0ec85acc95",
        "name": "JoVan The Dutch Bakery",
        "vegan_score": 3.7,
        "price": null,
        "cuisine_types": [],
        "rating": null,
        "address": "Sofia Center, ul. \"Angel Kanchev\" 37, 1000 Sofia, Bulgaria"
      },
      "geometry": {
        "type": "Point",
        "coordinates": [
          23.3217985,
          42.6892601
        ]
      }
    },
    {
      "type": "Feature",
      "properties": {
        "id": "71fcac7e-803f-4234-b8cb-bf09301794b4",
        "name": "KFC",
        "vegan_score": 1.1,
        "price": null,
        "cuisine_types": [],
        "rating": null,
        "address": "Zona B-5, \"Aleksandar Stamboliyski\" Blvd 103, 1303 Sofia, Bulgaria"
      },
      "geometry": {
        "type": "Point",
        "coordinates": [
          23.3084089,
          42.6984932
        ]
      }
    },
    {
      "type": "Feature",
      "properties": {
        "id": "3fcdd8c9-f4c5-4b6d-8073-9dae79b01d26",
        "name": "KFC Liulin 8",
        "vegan_score": 2.7,
        "price": null,
        "cuisine_types": [],
        "rating": null,
        "address": "zh.k. Lyulin 8, bul. \"Tsaritsa Yoanna\" 72, 1324 Sofia, Bulgaria"
      },
      "geometry": {
        "type": "Point",
        "coordinates": [
          23.2562451,
          42.7201459
        ]
      }
    },
    {
      "type": "Feature",
      "properties": {
        "id": "8662d4de-5644-40d1-bf34-b2ac218dd536",
        "name": "KFC ГАРИБАЛДИ",
        "vegan_score": 1.1,
        "price": null,
        "cuisine_types": [],
        "rating": null,
        "address": "Old City Center, ul. \"Angel Kanchev\" 2, 1000 Sofia, Bulgaria"
      },
      "geometry": {
        "type": "Point",
        "coordinates": [
          23.3224123,
          42.6938849
        ]
      }
    },
    {
      "type": "Feature",
      "properties": {
        "id": "a057d592-6b2e-47d3-9650-c1b859b505e7",
        "name": "KFC ЛЮЛИН",
        "vegan_score": 2.5,
        "price": null,
        "cuisine_types": [],
        "rating": null,
        "address": "ж.к. Люлин 7, bul. \"Jawaharlal Neru\", 1324 Sofia, Bulgaria"
      },
      "geometry": {
        "type": "Point",
        "coordinates": [
          23.2599928,
          42.7146117
        ]
      }
    },
    {
      "type": "Feature",
      "properties": {
        "id": "712fc006-5dca-4ecc-9608-ee1a8c200a5e",
        "name": "KFC СТАМБОЛИЙСКИ",
        "vegan_score": 1,
        "price": null,
        "cuisine_types": [],
        "rating": null,
        "address": "Old City Center, \"Aleksandar Stamboliyski\" Blvd 28, 1000 Sofia, Bulgaria"
      },
      "geometry": {
        "type": "Point",
        "coordinates": [
          23.3181068,
          42.6974046
        ]
      }
    },
    {
      "type": "Feature",
      "properties": {
        "id": "75e675d3-2c5d-4a69-8762-e70a7ffc5056",
        "name": "Kafe Mania Boutique & Bar",
        "vegan_score": 1.7,
        "price": null,
        "cuisine_types": [],
        "rating": null,
        "address": "g.k. Lozenets, Blvd. \"Cherni vrah\" 25, 1000 Sofia, Bulgaria"
      },
      "geometry": {
        "type": "Point",
        "coordinates": [
          23.3221538,
          42.6777425
        ]
      }
    },
    {
      "type": "Feature",
      "properties": {
        "id": "002b429d-457c-4c18-b644-23c26b24454d",
        "name": "Kato U Doma - Brunch & Catering",
        "vegan_score": 4.9,
        "price": null,
        "cuisine_types": [],
        "rating": null,
        "address": "Old City Center, ul. \"Neofit Rilski\" 11, 1000 Sofia, Bulgaria"
      },
      "geometry": {
        "type": "Point",
        "coordinates": [
          23.3156883,
          42.6910377
        ]
      }
    },
    {
      "type": "Feature",
      "properties": {
        "id": "671bd3bd-b602-476a-92a0-dfaf835241c1",
        "name": "Katrin - Irena Draganova",
        "vegan_score": 2.7,
        "price": null,
        "cuisine_types": [],
        "rating": null,
        "address": "ul. \"Ivan Vazov\" 5, 1320 Bankya, Bulgaria"
      },
      "geometry": {
        "type": "Point",
        "coordinates": [
          23.1447776,
          42.7035364
        ]
      }
    },
    {
      "type": "Feature",
      "properties": {
        "id": "af320f9b-d714-437f-91e3-b0e586864d6f",
        "name": "Kaufland",
        "vegan_score": 2,
        "price": null,
        "cuisine_types": [],
        "rating": null,
        "address": "g.k. Banishora, ul. \"Skopie\" 1, 1233 Sofia, Bulgaria"
      },
      "geometry": {
        "type": "Point",
        "coordinates": [
          23.3024637,
          42.7110323
        ]
      }
    },
    {
      "type": "Feature",
      "properties": {
        "id": "0a4dfdce-1138-4733-9224-04c1d71ae5ec",
        "name": "Kaufland София-Хаджи Димитър",
        "vegan_score": 2.1,
        "price": null,
        "cuisine_types": [],
        "rating": null,
        "address": "НПЗ Хаджи Димитър, ul. \"Rezbarska\" 7B, 1510 Sofia, Bulgaria"
      },
      "geometry": {
        "type": "Point",
        "coordinates": [
          23.3550617,
          42.712897
        ]
      }
    },
    {
      "type": "Feature",
      "properties": {
        "id": "2be02862-6073-4a04-9fd4-238a78b6ef1a",
        "name": "Kohinoor I",
        "vegan_score": 2.8,
        "price": null,
        "cuisine_types": [],
        "rating": null,
        "address": "ж.к. Белите брези, bul. \"Gotse Delchev\" №67, 1680 Sofia, Bulgaria"
      },
      "geometry": {
        "type": "Point",
        "coordinates": [
          23.2916598,
          42.6741552
        ]
      }
    },
    {
      "type": "Feature",
      "properties": {
        "id": "4a3b3f4e-361f-45f1-a621-1ef4dd809cab",
        "name": "Korean Restaurant Korea",
        "vegan_score": 2.5,
        "price": null,
        "cuisine_types": [],
        "rating": null,
        "address": "жк.витоша 8, Студентски Комплекс, 1700 София, Bulgaria"
      },
      "geometry": {
        "type": "Point",
        "coordinates": [
          23.3396076,
          42.6568231
        ]
      }
    },
    {
      "type": "Feature",
      "properties": {
        "id": "d6301844-cd1d-4b13-9c2b-647a5f2f96b6",
        "name": "Kraso",
        "vegan_score": 1.2,
        "price": null,
        "cuisine_types": [],
        "rating": null,
        "address": "Old City Center, 1000 Sofia, Bulgaria"
      },
      "geometry": {
        "type": "Point",
        "coordinates": [
          23.3218668,
          42.6957261
        ]
      }
    },
    {
      "type": "Feature",
      "properties": {
        "id": "a42619c3-5da1-4ecc-bf05-a4e31c950276",
        "name": "Kubcheto",
        "vegan_score": 2,
        "price": null,
        "cuisine_types": [],
        "rating": null,
        "address": "Sofia Center, ul. \"Tsar Asen\" 14, 1000 Sofia, Bulgaria"
      },
      "geometry": {
        "type": "Point",
        "coordinates": [
          23.3191241,
          42.6936531
        ]
      }
    },
    {
      "type": "Feature",
      "properties": {
        "id": "defaf3d6-0739-4b50-b664-ae8e6d44f64f",
        "name": "La Bottega Prima",
        "vegan_score": 2.3,
        "price": null,
        "cuisine_types": [],
        "rating": null,
        "address": "6, Milin kamak street, g.k. Lozenets, 1421 Sofia, Bulgaria"
      },
      "geometry": {
        "type": "Point",
        "coordinates": [
          23.3272958,
          42.6832272
        ]
      }
    },
    {
      "type": "Feature",
      "properties": {
        "id": "e481ea62-5b64-42eb-8d4e-8dac423e9b99",
        "name": "La Pastaria Sofia",
        "vegan_score": 0,
        "price": null,
        "cuisine_types": [],
        "rating": null,
        "address": "Doctor's Garden, ul. \"Professor Asen Zlatarov\" 24, 1504 Sofia, Bulgaria"
      },
      "geometry": {
        "type": "Point",
        "coordinates": [
          23.3437307,
          42.6930645
        ]
      }
    },
    {
      "type": "Feature",
      "properties": {
        "id": "583e2fd7-9eff-4256-8b10-00666e319622",
        "name": "La Terra Ristorante",
        "vegan_score": 2.3,
        "price": null,
        "cuisine_types": [],
        "rating": null,
        "address": "Manastirski Livadi, ul. \"Boyan Petrov\" 7, 1404 Sofia, Bulgaria"
      },
      "geometry": {
        "type": "Point",
        "coordinates": [
          23.293834,
          42.6606441
        ]
      }
    },
    {
      "type": "Feature",
      "properties": {
        "id": "350aa88e-1a05-4d3d-a83c-ff8bab913455",
        "name": "La bottega all'Angolo",
        "vegan_score": 0,
        "price": null,
        "cuisine_types": [],
        "rating": null,
        "address": "Old City Center, ul. \"William Gladstone\" 58, 1000 Sofia, Bulgaria"
      },
      "geometry": {
        "type": "Point",
        "coordinates": [
          23.3231109,
          42.6912419
        ]
      }
    },
    {
      "type": "Feature",
      "properties": {
        "id": "19c43ba4-fec3-45c0-9902-ad264a6635df",
        "name": "Leo's Pizza Trattoria",
        "vegan_score": 0,
        "price": null,
        "cuisine_types": [],
        "rating": null,
        "address": "g.k. Iztok, ul. \"Lachezar Stanchev\" 5, 1797 Sofia, Bulgaria"
      },
      "geometry": {
        "type": "Point",
        "coordinates": [
          23.3570523,
          42.66603
        ]
      }
    },
    {
      "type": "Feature",
      "properties": {
        "id": "49a32aef-faa4-4700-b179-05d8eba208a9",
        "name": "Level Up - Slaveykov",
        "vegan_score": 0.5,
        "price": null,
        "cuisine_types": [],
        "rating": null,
        "address": "Old City Center, pl. \"Petko R. Slaveykov\" 7b, 1000 Sofia, Bulgaria"
      },
      "geometry": {
        "type": "Point",
        "coordinates": [
          23.3248926,
          42.6920987
        ]
      }
    },
    {
      "type": "Feature",
      "properties": {
        "id": "58373be2-f9af-47f4-8eb7-4b5b1d84f22e",
        "name": "Lime Cafe & Cocktails",
        "vegan_score": 3.7,
        "price": null,
        "cuisine_types": [],
        "rating": null,
        "address": "Old City Center, ul. \"Graf Ignatiev\" 40, 1000 Sofia, Bulgaria"
      },
      "geometry": {
        "type": "Point",
        "coordinates": [
          23.326561,
          42.689943
        ]
      }
    },
    {
      "type": "Feature",
      "properties": {
        "id": "9d5d6da6-9db2-4c3b-aa5a-6fa0de28192b",
        "name": "Locanda di Serdika",
        "vegan_score": 1.8,
        "price": null,
        "cuisine_types": [],
        "rating": null,
        "address": "Sofia Center, ul. \"Tsar Simeon\" 82, 1202 Sofia, Bulgaria"
      },
      "geometry": {
        "type": "Point",
        "coordinates": [
          23.3234081,
          42.7012016
        ]
      }
    },
    {
      "type": "Feature",
      "properties": {
        "id": "dc3e2c67-99f6-4b1f-8d96-84dca9d13716",
        "name": "Loving Hut Sofia",
        "vegan_score": 8,
        "price": null,
        "cuisine_types": [],
        "rating": null,
        "address": "Sofia Center, ulitsa „Georgi S. Rakovski“ 113, 1000 Sofia, Bulgaria"
      },
      "geometry": {
        "type": "Point",
        "coordinates": [
          23.3300751,
          42.6979836
        ]
      }
    },
    {
      "type": "Feature",
      "properties": {
        "id": "af8fbc1b-6ab5-4656-9cab-808c14ffbb64",
        "name": "MEAT Gourmet Sandwiches and Burgers",
        "vegan_score": 1.3,
        "price": null,
        "cuisine_types": [],
        "rating": null,
        "address": "Old City Center, ul. \"Angel Kanchev\" 1, 1000 Sofia, Bulgaria"
      },
      "geometry": {
        "type": "Point",
        "coordinates": [
          23.3225332,
          42.6932266
        ]
      }
    },
    {
      "type": "Feature",
      "properties": {
        "id": "122c1fa3-fc3b-4a0c-984c-173ed1f2d34e",
        "name": "Mamma Mia Ltd",
        "vegan_score": 3.9,
        "price": null,
        "cuisine_types": [],
        "rating": null,
        "address": "g.k. Lozenets, ul. \"Kapitan Andreev\" 13, 1421 Sofia, Bulgaria"
      },
      "geometry": {
        "type": "Point",
        "coordinates": [
          23.3238684,
          42.6820127
        ]
      }
    },
    {
      "type": "Feature",
      "properties": {
        "id": "b36b399d-1aa2-4993-9ae6-3efaeea900bb",
        "name": "Manastirska Magernitsa Restaurant",
        "vegan_score": 3,
        "price": null,
        "cuisine_types": [],
        "rating": null,
        "address": "Old City Center, ul. \"Han Asparuh\" 67, 1000 Sofia, Bulgaria"
      },
      "geometry": {
        "type": "Point",
        "coordinates": [
          23.324585,
          42.6893416
        ]
      }
    },
    {
      "type": "Feature",
      "properties": {
        "id": "ebb184fe-c231-4b51-968e-b43048d4b4eb",
        "name": "Mangia Station",
        "vegan_score": 3.2,
        "price": null,
        "cuisine_types": [],
        "rating": null,
        "address": "Sofia Center, bul. \"Patriarh Evtimiy\" 42, 1142 Sofia, Bulgaria"
      },
      "geometry": {
        "type": "Point",
        "coordinates": [
          23.3224949,
          42.6888148
        ]
      }
    },
    {
      "type": "Feature",
      "properties": {
        "id": "10b507a5-ee4a-4ca3-80fa-2459b1521832",
        "name": "Mania 5",
        "vegan_score": 2.7,
        "price": null,
        "cuisine_types": [],
        "rating": null,
        "address": "София, ул. Цар Асен I 6, g.k. Yavorov, 1124 Sofia, Bulgaria"
      },
      "geometry": {
        "type": "Point",
        "coordinates": [
          23.3394469,
          42.6902333
        ]
      }
    },
    {
      "type": "Feature",
      "properties": {
        "id": "fe018509-d082-4949-94b9-07003b8f8491",
        "name": "Marco's Pizza",
        "vegan_score": 0,
        "price": null,
        "cuisine_types": [],
        "rating": null,
        "address": "Old City Center, ul. \"Tsar Asen\" 5, 1000 Sofia, Bulgaria"
      },
      "geometry": {
        "type": "Point",
        "coordinates": [
          23.3195983,
          42.6946214
        ]
      }
    },
    {
      "type": "Feature",
      "properties": {
        "id": "38021d9c-7bd3-4d03-b762-7b8e1ea9e27e",
        "name": "Markrit Ltd",
        "vegan_score": 0.9,
        "price": null,
        "cuisine_types": [],
        "rating": null,
        "address": "Old City Center, bul. \"Patriarh Evtimiy\" 61, 1463 Sofia, Bulgaria"
      },
      "geometry": {
        "type": "Point",
        "coordinates": [
          23.316676,
          42.6890218
        ]
      }
    },
    {
      "type": "Feature",
      "properties": {
        "id": "65f6ffc1-f448-4ce0-b887-30d5711929a2",
        "name": "Martines Specialty Coffee Shop & Roastery Sofia",
        "vegan_score": 2.3,
        "price": null,
        "cuisine_types": [],
        "rating": null,
        "address": "Old City Center, ul. \"Hristo Belchev\" 1, 1000 Sofia, Bulgaria"
      },
      "geometry": {
        "type": "Point",
        "coordinates": [
          23.3219261,
          42.6945712
        ]
      }
    },
    {
      "type": "Feature",
      "properties": {
        "id": "ff6baf19-058d-44f2-b421-3970e6af5640",
        "name": "Maymunarnika",
        "vegan_score": 1,
        "price": null,
        "cuisine_types": [],
        "rating": null,
        "address": "София, Алеята над колодрума, Borisova Gradina, Колодрум Сердика, 1164 Sofia, Bulgaria"
      },
      "geometry": {
        "type": "Point",
        "coordinates": [
          23.3428489,
          42.6831822
        ]
      }
    },
    {
      "type": "Feature",
      "properties": {
        "id": "05335855-c728-4675-a632-d68c61f7cb19",
        "name": "McCafe",
        "vegan_score": 1,
        "price": null,
        "cuisine_types": [],
        "rating": null,
        "address": "Mall of Sofia, ет, Zona B-5, \"Aleksandar Stamboliyski\" Blvd 101, 2 Sofia, Bulgaria"
      },
      "geometry": {
        "type": "Point",
        "coordinates": [
          23.30905,
          42.69844
        ]
      }
    },
    {
      "type": "Feature",
      "properties": {
        "id": "240ddecf-d4bd-4d40-bbe4-97c42aa30ecb",
        "name": "McCarthys Irish Pub",
        "vegan_score": 0.5,
        "price": null,
        "cuisine_types": [],
        "rating": null,
        "address": "Old City Center, ул. „Алабин И. Вл.“ 29, 1000 Sofia, Bulgaria"
      },
      "geometry": {
        "type": "Point",
        "coordinates": [
          23.3211603,
          42.6949952
        ]
      }
    },
    {
      "type": "Feature",
      "properties": {
        "id": "597934dc-ddd5-4bfd-898b-fd2605de8a28",
        "name": "Mediterraneo Restaurant",
        "vegan_score": 0,
        "price": null,
        "cuisine_types": [],
        "rating": null,
        "address": "Doctor's Garden, ul. \"Oborishte\" 9Б, 1000 Sofia, Bulgaria"
      },
      "geometry": {
        "type": "Point",
        "coordinates": [
          23.3369998,
          42.6958109
        ]
      }
    },
    {
      "type": "Feature",
      "properties": {
        "id": "30adf026-97e3-4f48-ba4c-ed98511738a5",
        "name": "Mehana Mamin Kolyo",
        "vegan_score": 2.5,
        "price": null,
        "cuisine_types": [],
        "rating": null,
        "address": "Old City Center, ul. \"Pozitano\" 40, 1000 Sofia, Bulgaria"
      },
      "geometry": {
        "type": "Point",
        "coordinates": [
          23.31561,
          42.69678
        ]
      }
    },
    {
      "type": "Feature",
      "properties": {
        "id": "b7aa79d2-1169-45d1-a0b3-22afb5a2e42c",
        "name": "Mehana Sofia",
        "vegan_score": 3,
        "price": null,
        "cuisine_types": [],
        "rating": null,
        "address": "Tsentralna Zhp Gara, bul. \"Knyaginya Maria Luiza\" 106, 1233 Sofia, Bulgaria"
      },
      "geometry": {
        "type": "Point",
        "coordinates": [
          23.3173544,
          42.7128629
        ]
      }
    },
    {
      "type": "Feature",
      "properties": {
        "id": "20c4025d-480f-44d6-965c-7dc144da2c2d",
        "name": "Meng Fu Yuan",
        "vegan_score": 2.7,
        "price": null,
        "cuisine_types": [],
        "rating": null,
        "address": "Motopista, ul. \"Kestenova gora\" 19, 1404 Sofia, Bulgaria"
      },
      "geometry": {
        "type": "Point",
        "coordinates": [
          23.2952057,
          42.6706146
        ]
      }
    },